$GPGSA,A,1,,,,,,,,,,,,,,,*1E
$GPRMC,133518.530,V,,,,,,,080809,,*2D
$GPGGA,133518.733,,,,,0,00,,,M,0.0,M,,0000*5C
$GPGSA,A,1,,,,,,,,,,,,,,,*1E
$GPRMC,133518.733,V,,,,,,,080809,,*2C
$GPGGA,133519.528,,,,,0,00,,,M,0.0,M,,0000*55
$GPGSA,A,1,,,,,,,,,,,,,,,*1E
$GPRMC,133519.528,V,,,,,,,080809,,*25
$GPGGA,133520.529,,,,,0,00,,,M,0.0,M,,0000*5E
$GPGSA,A,1,,,,,,,,,,,,,,,*1E
$GPRMC,133520.529,V,,,,,,,080809,,*2E
$GPGGA,133521.529,,,,,0,00,,,M,0.0,M,,0000*5F
$GPGSA,A,1,,,,,,,,,,,,,,,*1E
$GPGSV,3,1,10,12,81,319,36,30,49,270,38,27,42,134,,04,22,078,*70
$GPGSV,3,2,10,29,11,206,39,09,54,135,40,26,45,232,40,14,39,293,40*76
$GPGSV,3,3,10,02,20,114,,17,05,040,*7B
$GPRMC,133521.529,V,,,,,,,080809,,*2F
$GPGGA,133522.518,,,,,0,00,,,M,0.0,M,,0000*5E
$GPGSA,A,1,,,,,,,,,,,,,,,*1E
$GPRMC,133522.518,V,,,,,,,080809,,*2E
$GPGGA,133523.518,,,,,0,00,,,M,0.0,M,,0000*5F
$GPGSA,A,1,,,,,,,,,,,,,,,*1E
$GPRMC,133523.518,V,,,,,,,080809,,*2F
$GPGGA,133524.518,,,,,0,00,,,M,0.0,M,,0000*58
$GPGSA,A,1,,,,,,,,,,,,,,,*1E
$GPRMC,133524.518,V,,,,,,,080809,,*28
$GPGGA,133525.518,,,,,0,03,24.1,,M,0.0,M,,0000*43
$GPGSA,A,1,12,30,04,,,,,,,,,,24.2,24.1,1.0*36
$GPRMC,133525.518,V,,,,,,,080809,,*29
$GPGGA,133526.518,,,,,0,03,24.2,,M,0.0,M,,0000*43
$GPGSA,A,1,12,30,04,,,,,,,,,,24.2,24.2,1.0*35
$GPGSV,3,1,10,12,81,319,37,30,49,270,39,27,42,134,33,04,22,078,26*74
$GPGSV,3,2,10,29,11,206,40,09,54,135,39,26,45,232,40,14,39,293,41*77
$GPGSV,3,3,10,02,20,114,34,17,05,040,28*76
$GPRMC,133526.518,V,,,,,,,080809,,*2A
$GPGGA,133527.517,,,,,0,03,24.2,,M,0.0,M,,0000*4D
$GPGSA,A,1,12,30,04,,,,,,,,,,24.2,24.2,1.0*35
$GPRMC,133527.517,V,,,,,,,080809,,*24
$GPGGA,133528.517,,,,,0,03,24.2,,M,0.0,M,,0000*42
$GPGSA,A,1,12,30,04,,,,,,,,,,24.2,24.2,1.0*35
$GPRMC,133528.517,V,,,,,,,080809,,*2B
$GPGGA,133529.517,,,,,0,03,24.2,,M,0.0,M,,0000*43
$GPGSA,A,1,12,30,04,,,,,,,,,,24.3,24.2,1.0*34
$GPRMC,133529.517,V,,,,,,,080809,,*2A
$GPGGA,133530.517,,,,,0,03,24.3,,M,0.0,M,,0000*4A
$GPGSA,A,1,12,30,04,,,,,,,,,,24.3,24.3,1.0*35
$GPRMC,133530.517,V,,,,,,,080809,,*22
$GPGGA,133531.517,,,,,0,03,24.3,,M,0.0,M,,0000*4B
$GPGSA,A,1,12,30,04,,,,,,,,,,24.3,24.3,1.0*35
$GPGSV,3,1,10,12,81,319,37,30,49,270,40,27,42,134,34,04,22,078,19*71
$GPGSV,3,2,10,29,11,206,39,09,54,135,39,26,45,232,39,14,39,293,41*77
$GPGSV,3,3,10,02,20,114,35,17,05,040,28*77
$GPRMC,133531.517,V,,,,,,,080809,,*23
$GPGGA,133532.517,,,,,0,03,24.3,,M,0.0,M,,0000*48
$GPGSA,A,1,12,30,04,,,,,,,,,,24.3,24.3,1.0*35
$GPRMC,133532.517,V,,,,,,,080809,,*20
$GPGGA,133533.517,,,,,0,03,24.3,,M,0.0,M,,0000*49
$GPGSA,A,1,12,30,04,,,,,,,,,,24.3,24.3,1.0*35
$GPRMC,133533.517,V,,,,,,,080809,,*21
$GPGGA,133534.517,,,,,0,03,24.3,,M,0.0,M,,0000*4E
$GPGSA,A,1,12,30,04,,,,,,,,,,24.4,24.3,1.0*32
$GPRMC,133534.517,V,,,,,,,080809,,*26
$GPGGA,133535.517,,,,,0,03,24.4,,M,0.0,M,,0000*48
$GPGSA,A,1,12,30,04,,,,,,,,,,24.4,24.4,1.0*35
$GPRMC,133535.517,V,,,,,,,080809,,*27
$GPGGA,133536.517,,,,,0,03,24.4,,M,0.0,M,,0000*4B
$GPGSA,A,1,12,30,04,,,,,,,,,,24.4,24.4,1.0*35
$GPGSV,3,1,10,12,81,319,37,30,49,270,39,27,42,134,32,04,22,078,25*76
$GPGSV,3,2,10,29,11,206,39,09,54,135,38,26,45,232,40,14,39,293,41*78
$GPGSV,3,3,10,02,20,114,36,17,05,040,24*78
$GPRMC,133536.517,V,,,,,,,080809,,*24
$GPGGA,133537.517,,,,,0,03,24.4,,M,0.0,M,,0000*4A
$GPGSA,A,1,12,30,04,,,,,,,,,,24.4,24.4,1.0*35
$GPRMC,133537.517,V,,,,,,,080809,,*25
$GPGGA,133538.517,,,,,0,03,24.4,,M,0.0,M,,0000*45
$GPGSA,A,1,12,30,04,,,,,,,,,,24.5,24.4,1.0*34
$GPRMC,133538.517,V,,,,,,,080809,,*2A
$GPGGA,133539.517,,,,,0,03,24.5,,M,0.0,M,,0000*45
$GPGSA,A,1,12,30,04,,,,,,,,,,24.5,24.5,1.0*35
$GPRMC,133539.517,V,,,,,,,080809,,*2B
$GPGGA,133540.517,,,,,0,03,24.5,,M,0.0,M,,0000*4B
$GPGSA,A,1,12,30,04,,,,,,,,,,24.5,24.5,1.0*35
$GPRMC,133540.517,V,,,,,,,080809,,*25
$GPGGA,133541.517,,,,,0,03,24.5,,M,0.0,M,,0000*4A
$GPGSA,A,1,12,30,04,,,,,,,,,,24.5,24.5,1.0*35
$GPGSV,3,1,10,12,81,319,31,30,49,270,37,27,42,134,31,04,22,078,33*7A
$GPGSV,3,2,10,29,11,206,39,09,54,135,38,26,45,232,40,14,39,293,40*79
$GPGSV,3,3,10,02,20,114,35,17,05,040,26*79
$GPRMC,133541.517,V,,,,,,,080809,,*24
$GPGGA,133542.517,,,,,0,03,24.5,,M,0.0,M,,0000*49
$GPGSA,A,1,12,30,04,,,,,,,,,,24.6,24.5,1.0*36
$GPRMC,133542.517,V,,,,,,,080809,,*27
$GPGGA,133543.517,,,,,0,03,24.6,,M,0.0,M,,0000*4B
$GPGSA,A,1,12,30,04,,,,,,,,,,24.6,24.6,1.0*35
$GPRMC,133543.517,V,,,,,,,080809,,*26
$GPGGA,133544.517,,,,,0,03,24.6,,M,0.0,M,,0000*4C
$GPGSA,A,1,12,30,04,,,,,,,,,,24.6,24.6,1.0*35
$GPRMC,133544.517,V,,,,,,,080809,,*21
$GPGGA,133545.517,,,,,0,03,24.6,,M,0.0,M,,0000*4D
$GPGSA,A,1,12,30,04,,,,,,,,,,24.6,24.6,1.0*35
$GPRMC,133545.517,V,,,,,,,080809,,*20
$GPGGA,133546.517,,,,,0,03,24.6,,M,0.0,M,,0000*4E
$GPGSA,A,1,12,30,04,,,,,,,,,,24.7,24.6,1.0*34
$GPGSV,3,1,10,12,81,319,31,30,49,270,44,27,42,134,38,04,22,078,33*77
$GPGSV,3,2,10,29,11,206,40,09,54,135,37,26,45,232,46,14,39,293,37*7E
$GPGSV,3,3,10,02,20,114,32,17,05,040,27*7F
$GPRMC,133546.517,V,,,,,,,080809,,*23
$GPGGA,133547.517,,,,,0,03,24.7,,M,0.0,M,,0000*4E
$GPGSA,A,1,12,30,04,,,,,,,,,,24.7,24.7,1.0*35
$GPRMC,133547.517,V,,,,,,,080809,,*22
$GPGGA,133548.517,,,,,0,03,24.7,,M,0.0,M,,0000*41
$GPGSA,A,1,12,30,04,,,,,,,,,,24.7,24.7,1.0*35
$GPRMC,133548.517,V,,,,,,,080809,,*2D
$GPGGA,133549.517,,,,,0,03,24.7,,M,0.0,M,,0000*40
$GPGSA,A,1,12,30,04,,,,,,,,,,24.7,24.7,1.0*35
$GPRMC,133549.517,V,,,,,,,080809,,*2C
$GPGGA,133550.517,,,,,0,03,24.7,,M,0.0,M,,0000*48
$GPGSA,A,1,12,30,04,,,,,,,,,,24.7,24.7,1.0*35
$GPRMC,133550.517,V,,,,,,,080809,,*24
$GPGGA,133551.517,4841.2658,N,01132.3677,E,1,07,1.3,367.0,M,47.6,M,,0000*59
$GPGSA,A,3,14,26,29,12,09,30,04,,,,,,2.1,1.3,1.7*32
$GPGSV,3,1,10,12,81,321,36,09,53,135,37,30,49,270,45,26,45,232,44*75
$GPGSV,3,2,10,14,39,293,40,04,22,078,24,29,11,206,40,27,42,134,36*7C
$GPGSV,3,3,10,02,21,113,33,17,05,040,25*7A
$GPRMC,133551.517,A,4841.2658,N,01132.3677,E,0.05,64.80,080809,,*32
$GPGGA,133552.000,4841.2653,N,01132.3671,E,1,07,1.3,368.1,M,47.6,M,,0000*5A
$GPGSA,A,3,14,26,29,12,09,30,04,,,,,,2.1,1.3,1.7*32
$GPRMC,133552.000,A,4841.2653,N,01132.3671,E,0.05,117.11,080809,,*02
$GPGGA,133553.000,4841.2654,N,01132.3672,E,1,07,1.3,367.9,M,47.6,M,,0000*58
$GPGSA,A,3,14,26,29,12,09,30,04,,,,,,2.1,1.3,1.7*32
$GPRMC,133553.000,A,4841.2654,N,01132.3672,E,0.15,95.52,080809,,*3A
$GPGGA,133554.000,4841.2653,N,01132.3672,E,1,07,1.3,368.1,M,47.6,M,,0000*5F
$GPGSA,A,3,14,26,29,12,09,30,04,,,,,,2.1,1.3,1.7*32
$GPRMC,133554.000,A,4841.2653,N,01132.3672,E,0.04,298.76,080809,,*03
$GPGGA,133555.000,4841.2653,N,01132.3672,E,1,07,1.3,368.1,M,47.6,M,,0000*5E
$GPGSA,A,3,14,26,29,12,09,30,04,,,,,,2.1,1.3,1.7*32
$GPRMC,133555.000,A,4841.2653,N,01132.3672,E,0.05,64.64,080809,,*31
$GPGGA,133556.000,4841.2655,N,01132.3670,E,1,07,1.3,367.8,M,47.6,M,,0000*5F
$GPGSA,A,3,14,26,29,12,09,30,04,,,,,,2.1,1.3,1.7*32
$GPGSV,3,1,11,12,81,321,37,09,53,135,33,30,49,270,44,26,45,232,44*70
$GPGSV,3,2,11,14,39,293,42,04,22,078,35,29,11,206,40,27,42,134,36*7F
$GPGSV,3,3,11,02,21,113,34,17,05,040,27,37,33,165,29*43
$GPRMC,133556.000,A,4841.2655,N,01132.3670,E,0.10,269.98,080809,,*0E
$GPGGA,133557.000,4841.2653,N,01132.3672,E,1,08,1.2,367.9,M,47.6,M,,0000*55
$GPGSA,A,3,14,26,29,12,09,30,27,04,,,,,2.0,1.2,1.6*36
$GPRMC,133557.000,A,4841.2653,N,01132.3672,E,0.27,182.46,080809,,*0A
$GPGGA,133558.000,4841.2651,N,01132.3673,E,1,08,1.2,367.9,M,47.6,M,,0000*59
$GPGSA,A,3,14,26,29,12,09,30,27,04,,,,,2.0,1.2,1.6*36
$GPRMC,133558.000,A,4841.2651,N,01132.3673,E,0.31,180.39,080809,,*0B
$GPGGA,133559.000,4841.2651,N,01132.3672,E,1,08,1.2,367.5,M,47.6,M,,0000*55
$GPGSA,A,3,14,26,29,12,09,30,27,04,,,,,2.0,1.2,1.6*36
$GPRMC,133559.000,A,4841.2651,N,01132.3672,E,0.43,183.29,080809,,*0C
$GPGGA,133600.000,4841.2650,N,01132.3673,E,1,08,1.2,367.3,M,47.6,M,,0000*5C
$GPGSA,A,3,14,26,29,12,09,30,27,04,,,,,2.0,1.2,1.6*36
$GPRMC,133600.000,A,4841.2650,N,01132.3673,E,0.33,176.06,080809,,*03
$GPGGA,133601.000,4841.2650,N,01132.3673,E,1,08,1.2,367.2,M,47.6,M,,0000*5C
$GPGSA,A,3,14,26,29,12,09,30,27,04,,,,,2.0,1.2,1.6*36
$GPGSV,3,1,11,12,81,321,37,09,53,135,35,30,49,270,42,26,45,232,40*74
$GPGSV,3,2,11,27,42,134,35,14,39,293,37,04,22,078,33,02,21,113,34*76
$GPGSV,3,3,11,29,11,206,16,17,05,040,18,37,33,165,25*4E
$GPRMC,133601.000,A,4841.2650,N,01132.3673,E,0.15,163.01,080809,,*05
$GPGGA,133602.000,4841.2650,N,01132.3674,E,1,08,1.2,367.0,M,47.6,M,,0000*5A
$GPGSA,A,3,14,26,29,12,09,30,27,04,,,,,2.0,1.2,1.6*36
$GPRMC,133602.000,A,4841.2650,N,01132.3674,E,0.12,166.97,080809,,*0C
$GPGGA,133603.000,4841.2650,N,01132.3674,E,1,08,1.2,366.8,M,47.6,M,,0000*52
$GPGSA,A,3,14,26,29,12,09,30,27,04,,,,,2.0,1.2,1.6*36
$GPRMC,133603.000,A,4841.2650,N,01132.3674,E,0.23,202.76,080809,,*01
$GPGGA,133604.000,4841.2649,N,01132.3674,E,1,08,1.2,366.7,M,47.6,M,,0000*52
$GPGSA,A,3,14,26,29,12,09,30,27,04,,,,,2.0,1.2,1.6*36
$GPRMC,133604.000,A,4841.2649,N,01132.3674,E,0.37,230.61,080809,,*0C
$GPGGA,133605.000,4841.2650,N,01132.3674,E,1,08,1.2,366.7,M,47.6,M,,0000*5B
$GPGSA,A,3,14,26,29,12,09,30,27,04,,,,,2.0,1.2,1.6*36
$GPRMC,133605.000,A,4841.2650,N,01132.3674,E,0.06,93.08,080809,,*33
$GPGGA,133606.000,4841.2650,N,01132.3676,E,1,08,1.2,366.7,M,47.6,M,,0000*5A
$GPGSA,A,3,14,26,29,12,09,30,27,04,,,,,2.0,1.2,1.6*36
$GPGSV,3,1,11,12,81,321,33,09,53,135,38,30,49,270,34,26,45,232,36*7D
$GPGSV,3,2,11,27,42,134,36,14,39,293,31,04,22,078,28,02,21,113,26*7A
$GPGSV,3,3,11,29,11,206,31,17,05,040,27,37,33,165,34*47
$GPRMC,133606.000,A,4841.2650,N,01132.3676,E,0.23,79.42,080809,,*3F
$GPGGA,133607.000,4841.2651,N,01132.3677,E,1,08,1.2,366.7,M,47.6,M,,0000*5B
$GPGSA,A,3,14,26,29,12,09,30,27,04,,,,,2.0,1.2,1.7*37
$GPRMC,133607.000,A,4841.2651,N,01132.3677,E,0.20,84.51,080809,,*3D
$GPGGA,133608.000,4841.2651,N,01132.3677,E,1,08,1.2,366.3,M,47.6,M,,0000*50
$GPGSA,A,3,14,26,29,12,09,30,27,04,,,,,2.0,1.2,1.7*37
$GPRMC,133608.000,A,4841.2651,N,01132.3677,E,0.14,147.53,080809,,*09
$GPGGA,133609.000,4841.2651,N,01132.3677,E,1,08,1.2,366.1,M,47.6,M,,0000*53
$GPGSA,A,3,14,26,29,12,09,30,27,04,,,,,2.0,1.2,1.7*37
$GPRMC,133609.000,A,4841.2651,N,01132.3677,E,0.13,257.36,080809,,*0E
$GPGGA,133610.000,4841.2652,N,01132.3677,E,1,08,1.2,365.9,M,47.6,M,,0000*53
$GPGSA,A,3,14,26,29,12,09,30,27,04,,,,,2.0,1.2,1.7*37
$GPRMC,133610.000,A,4841.2652,N,01132.3677,E,0.25,356.23,080809,,*04
$GPGGA,133611.000,4841.2653,N,01132.3677,E,1,08,1.2,365.7,M,47.6,M,,0000*5D
$GPGSA,A,3,14,26,29,12,09,30,27,04,,,,,2.0,1.2,1.7*37
$GPGSV,3,1,10,12,81,321,25,09,53,135,29,30,49,270,29,26,45,232,25*75
$GPGSV,3,2,10,27,42,134,27,14,39,293,27,04,22,078,29,02,21,113,38*72
$GPGSV,3,3,10,29,11,206,32,17,05,040,26*75
$GPRMC,133611.000,A,4841.2653,N,01132.3677,E,0.13,2.74,080809,,*01
$GPGGA,133612.000,4841.2654,N,01132.3677,E,1,08,1.2,365.7,M,47.6,M,,0000*59
$GPGSA,A,3,14,26,29,12,09,30,27,04,,,,,2.0,1.2,1.7*37
$GPRMC,133612.000,A,4841.2654,N,01132.3677,E,0.10,354.79,080809,,*0B
$GPGGA,133613.000,4841.2654,N,01132.3677,E,1,08,1.2,365.6,M,47.6,M,,0000*59
$GPGSA,A,3,14,26,29,12,09,30,27,04,,,,,2.0,1.2,1.7*37
$GPRMC,133613.000,A,4841.2654,N,01132.3677,E,0.08,26.34,080809,,*3C
$GPGGA,133614.000,4841.2654,N,01132.3676,E,1,08,1.2,365.6,M,47.6,M,,0000*5F
$GPGSA,A,3,14,26,29,12,09,30,27,04,,,,,2.0,1.2,1.7*37
$GPRMC,133614.000,A,4841.2654,N,01132.3676,E,0.04,80.61,080809,,*3A
$GPGGA,133615.000,4841.2653,N,01132.3677,E,1,08,1.2,365.5,M,47.6,M,,0000*5B
$GPGSA,A,3,14,26,29,12,09,30,27,04,,,,,2.0,1.2,1.7*37
$GPRMC,133615.000,A,4841.2653,N,01132.3677,E,0.66,161.29,080809,,*0B
$GPGGA,133616.000,4841.2652,N,01132.3677,E,1,08,1.2,365.4,M,47.6,M,,0000*58
$GPGSA,A,3,14,26,29,12,09,30,27,04,,,,,2.0,1.2,1.7*37
$GPGSV,3,1,09,12,81,322,25,09,53,135,36,30,49,270,30,26,45,232,34*78
$GPGSV,3,2,09,27,42,135,32,14,39,293,23,04,22,077,29,02,21,113,38*74
$GPGSV,3,3,09,29,12,206,22*4C
$GPRMC,133616.000,A,4841.2652,N,01132.3677,E,0.41,352.16,080809,,*02
$GPGGA,133617.000,4841.2653,N,01132.3677,E,1,08,1.2,365.3,M,47.6,M,,0000*5F
$GPGSA,A,3,14,26,29,12,09,30,27,04,,,,,2.0,1.2,1.7*37
$GPRMC,133617.000,A,4841.2653,N,01132.3677,E,0.62,354.87,080809,,*0D
$GPGGA,133618.000,4841.2654,N,01132.3677,E,1,08,1.2,365.3,M,47.6,M,,0000*57
$GPGSA,A,3,14,26,29,12,09,30,27,04,,,,,2.0,1.2,1.7*37
$GPRMC,133618.000,A,4841.2654,N,01132.3677,E,0.08,312.56,080809,,*07
$GPGGA,133619.000,4841.2653,N,01132.3677,E,1,08,1.2,365.6,M,47.6,M,,0000*54
$GPGSA,A,3,14,26,29,12,09,30,27,04,,,,,2.0,1.2,1.7*37
$GPRMC,133619.000,A,4841.2653,N,01132.3677,E,0.25,232.76,080809,,*0F
$GPGGA,133620.000,4841.2655,N,01132.3679,E,1,07,1.2,366.0,M,47.6,M,,0000*5C
$GPGSA,A,3,14,29,12,09,30,27,04,,,,,,2.1,1.2,1.7*32
$GPRMC,133620.000,A,4841.2655,N,01132.3679,E,1.19,43.22,080809,,*36
$GPGGA,133621.000,4841.2655,N,01132.3682,E,1,08,1.2,366.0,M,47.6,M,,0000*56
$GPGSA,A,3,14,26,29,12,09,30,27,04,,,,,2.0,1.2,1.7*37
$GPGSV,3,1,09,12,81,322,20,09,53,135,30,30,49,270,22,26,45,232,20*7D
$GPGSV,3,2,09,27,42,135,28,14,39,293,20,04,22,077,24,02,21,113,19*72
$GPGSV,3,3,09,29,12,206,24*4A
$GPRMC,133621.000,A,4841.2655,N,01132.3682,E,0.99,71.79,080809,,*35
$GPGGA,133622.000,4841.2655,N,01132.3685,E,1,08,1.2,365.4,M,47.6,M,,0000*55
$GPGSA,A,3,14,26,29,12,09,30,27,04,,,,,2.0,1.2,1.7*37
$GPRMC,133622.000,A,4841.2655,N,01132.3685,E,0.64,109.76,080809,,*02
$GPGGA,133623.000,4841.2653,N,01132.3685,E,1,08,1.2,365.4,M,47.6,M,,0000*52
$GPGSA,A,3,14,26,29,12,09,30,27,04,,,,,2.0,1.2,1.7*37
$GPRMC,133623.000,A,4841.2653,N,01132.3685,E,0.20,236.34,080809,,*0C
$GPGGA,133624.000,4841.2654,N,01132.3684,E,1,08,1.2,365.1,M,47.6,M,,0000*56
$GPGSA,A,3,14,26,29,12,09,30,27,04,,,,,2.0,1.2,1.7*37
$GPRMC,133624.000,A,4841.2654,N,01132.3684,E,0.07,296.95,080809,,*09
$GPGGA,133625.000,4841.2655,N,01132.3683,E,1,08,1.2,364.9,M,47.6,M,,0000*58
$GPGSA,A,3,14,26,29,12,09,30,27,04,,,,,2.0,1.2,1.7*37
$GPRMC,133625.000,A,4841.2655,N,01132.3683,E,0.20,12.82,080809,,*33
$GPGGA,133626.000,4841.2654,N,01132.3683,E,1,08,1.2,365.0,M,47.6,M,,0000*52
$GPGSA,A,3,14,26,29,12,09,30,27,04,,,,,2.0,1.2,1.7*37
$GPGSV,3,1,09,12,81,322,27,09,53,135,30,30,49,270,31,26,45,232,35*7C
$GPGSV,3,2,09,27,42,135,27,14,39,293,30,04,22,077,23,02,21,113,35*75
$GPGSV,3,3,09,29,12,206,29*47
$GPRMC,133626.000,A,4841.2654,N,01132.3683,E,0.17,248.87,080809,,*0D
$GPGGA,133627.000,4841.2654,N,01132.3683,E,1,08,1.2,364.9,M,47.6,M,,0000*5B
$GPGSA,A,3,14,26,29,12,09,30,27,04,,,,,2.0,1.2,1.7*37
$GPRMC,133627.000,A,4841.2654,N,01132.3683,E,0.20,55.59,080809,,*35
$GPGGA,133628.000,4841.2654,N,01132.3685,E,1,08,1.2,364.8,M,47.6,M,,0000*53
$GPGSA,A,3,14,26,29,12,09,30,27,04,,,,,2.0,1.2,1.7*37
$GPRMC,133628.000,A,4841.2654,N,01132.3685,E,0.12,51.95,080809,,*39
$GPGGA,133629.000,4841.2653,N,01132.3685,E,1,08,1.2,365.2,M,47.6,M,,0000*5E
$GPGSA,A,3,14,26,29,12,09,30,27,04,,,,,2.0,1.2,1.7*37
$GPRMC,133629.000,A,4841.2653,N,01132.3685,E,0.31,209.72,080809,,*08
$GPGGA,133630.000,4841.2652,N,01132.3686,E,1,08,1.2,365.9,M,47.6,M,,0000*5F
$GPGSA,A,3,14,26,29,12,09,30,27,04,,,,,2.0,1.2,1.7*37
$GPRMC,133630.000,A,4841.2652,N,01132.3686,E,0.09,202.93,080809,,*0D
$GPGGA,133631.000,4841.2652,N,01132.3685,E,1,08,1.2,366.4,M,47.6,M,,0000*53
$GPGSA,A,3,14,26,29,12,09,30,27,04,,,,,2.0,1.2,1.7*37
$GPGSV,3,1,09,12,81,322,26,09,53,135,32,30,49,270,31,26,45,232,34*7E
$GPGSV,3,2,09,27,42,135,32,14,39,293,24,04,22,077,23,02,21,113,36*77
$GPGSV,3,3,09,29,12,206,23*4D
$GPRMC,133631.000,A,4841.2652,N,01132.3685,E,0.19,230.13,080809,,*07
$GPGGA,133632.000,4841.2650,N,01132.3683,E,1,08,1.2,366.6,M,47.6,M,,0000*56
$GPGSA,A,3,14,26,29,12,09,30,27,04,,,,,2.0,1.2,1.7*37
$GPRMC,133632.000,A,4841.2650,N,01132.3683,E,0.96,204.80,080809,,*0A
$GPGGA,133633.000,4841.2650,N,01132.3681,E,1,08,1.2,366.6,M,47.6,M,,0000*55
$GPGSA,A,3,14,26,29,12,09,30,27,04,,,,,2.0,1.2,1.7*37
$GPRMC,133633.000,A,4841.2650,N,01132.3681,E,0.24,206.32,080809,,*0B
$GPGGA,133634.000,4841.2651,N,01132.3679,E,1,07,2.1,366.8,M,47.6,M,,0000*55
$GPGSA,A,3,14,26,29,12,09,30,27,,,,,,3.7,2.1,3.0*30
$GPRMC,133634.000,A,4841.2651,N,01132.3679,E,0.16,274.72,080809,,*0A
$GPGGA,133635.000,4841.2650,N,01132.3678,E,1,08,1.2,367.4,M,47.6,M,,0000*56
$GPGSA,A,3,14,26,29,12,09,30,27,04,,,,,2.0,1.2,1.7*37
$GPRMC,133635.000,A,4841.2650,N,01132.3678,E,0.79,217.46,080809,,*00
$GPGGA,133636.000,4841.2649,N,01132.3677,E,1,08,1.2,367.4,M,47.6,M,,0000*52
$GPGSA,A,3,14,26,29,12,09,30,27,04,,,,,2.0,1.2,1.7*37
$GPGSV,3,1,09,12,81,322,26,09,53,135,33,30,49,270,29,26,45,232,30*72
$GPGSV,3,2,09,27,42,135,34,14,39,293,24,04,22,077,21,02,21,113,40*72
$GPGSV,3,3,09,29,12,206,30*4F
$GPRMC,133636.000,A,4841.2649,N,01132.3677,E,0.21,163.52,080809,,*0C
$GPGGA,133637.000,4841.2649,N,01132.3676,E,1,08,1.2,367.9,M,47.6,M,,0000*5F
$GPGSA,A,3,14,26,29,12,09,30,27,04,,,,,2.0,1.2,1.7*37
$GPRMC,133637.000,A,4841.2649,N,01132.3676,E,0.61,58.67,080809,,*37
$GPGGA,133638.000,4841.2650,N,01132.3675,E,1,08,1.2,368.3,M,47.6,M,,0000*5E
$GPGSA,A,3,14,26,29,12,09,30,27,04,,,,,2.0,1.2,1.7*37
$GPRMC,133638.000,A,4841.2650,N,01132.3675,E,0.19,9.63,080809,,*0C
$GPGGA,133639.000,4841.2650,N,01132.3674,E,1,08,1.2,368.9,M,47.6,M,,0000*54
$GPGSA,A,3,14,26,29,12,09,30,27,04,,,,,2.0,1.2,1.7*37
$GPRMC,133639.000,A,4841.2650,N,01132.3674,E,0.09,151.53,080809,,*02
$GPGGA,133640.000,4841.2649,N,01132.3674,E,1,08,1.2,369.5,M,47.6,M,,0000*5F
$GPGSA,A,3,14,26,29,12,09,30,27,04,,,,,2.0,1.2,1.7*37
$GPRMC,133640.000,A,4841.2649,N,01132.3674,E,0.22,178.06,080809,,*06
$GPGGA,133641.000,4841.2651,N,01132.3673,E,1,08,1.2,369.5,M,47.6,M,,0000*50
$GPGSA,A,3,14,26,29,12,09,30,27,04,,,,,2.0,1.2,1.7*37
$GPGSV,3,1,09,12,81,322,19,09,53,135,34,30,49,270,25,26,45,232,32*77
$GPGSV,3,2,09,27,42,135,26,14,39,293,22,04,22,077,21,02,21,113,19*7B
$GPGSV,3,3,09,29,12,206,30*4F
$GPRMC,133641.000,A,4841.2651,N,01132.3673,E,0.15,240.74,080809,,*00
$GPGGA,133642.000,4841.2654,N,01132.3674,E,1,08,1.2,369.0,M,47.6,M,,0000*54
$GPGSA,A,3,14,26,29,12,09,30,27,04,,,,,2.0,1.2,1.7*37
$GPRMC,133642.000,A,4841.2654,N,01132.3674,E,0.51,41.20,080809,,*33
$GPGGA,133643.000,4841.2655,N,01132.3675,E,1,08,1.2,368.8,M,47.6,M,,0000*5C
$GPGSA,A,3,14,26,29,12,09,30,27,04,,,,,2.0,1.2,1.7*37
$GPRMC,133643.000,A,4841.2655,N,01132.3675,E,0.59,171.55,080809,,*0A
$GPGGA,133644.000,4841.2655,N,01132.3674,E,1,08,1.2,368.5,M,47.6,M,,0000*57
$GPGSA,A,3,14,26,29,12,09,30,27,04,,,,,2.0,1.2,1.7*37
$GPRMC,133644.000,A,4841.2655,N,01132.3674,E,0.13,18.71,080809,,*3A
$GPGGA,133645.000,4841.2656,N,01132.3672,E,1,07,2.1,368.5,M,47.6,M,,0000*5C
$GPGSA,A,3,14,26,29,12,09,30,27,,,,,,3.7,2.1,3.0*30
$GPRMC,133645.000,A,4841.2656,N,01132.3672,E,0.41,6.09,080809,,*09
$GPGGA,133646.000,4841.2658,N,01132.3670,E,1,08,1.2,368.3,M,47.6,M,,0000*5A
$GPGSA,A,3,14,26,29,12,09,30,27,04,,,,,2.0,1.2,1.7*37
$GPGSV,3,1,09,12,81,324,27,09,53,135,35,30,49,270,32,26,45,231,31*7B
$GPGSV,3,2,09,27,42,135,34,14,39,292,25,04,22,077,11,02,21,113,38*7E
$GPGSV,3,3,09,29,12,206,30*4F
$GPRMC,133646.000,A,4841.2658,N,01132.3670,E,0.34,348.50,080809,,*01
$GPGGA,133647.000,4841.2657,N,01132.3666,E,1,08,1.2,368.7,M,47.6,M,,0000*57
$GPGSA,A,3,14,26,29,12,09,30,27,04,,,,,2.0,1.2,1.7*37
$GPRMC,133647.000,A,4841.2657,N,01132.3666,E,0.03,251.84,080809,,*0C
$GPGGA,133648.000,4841.2656,N,01132.3662,E,1,08,1.2,369.2,M,47.6,M,,0000*59
$GPGSA,A,3,14,26,29,12,09,30,27,04,,,,,2.0,1.2,1.7*37
$GPRMC,133648.000,A,4841.2656,N,01132.3662,E,0.13,226.70,080809,,*0C
$GPGGA,133649.000,4841.2655,N,01132.3660,E,1,08,1.2,369.5,M,47.6,M,,0000*5E
$GPGSA,A,3,14,26,29,12,09,30,27,04,,,,,2.0,1.2,1.7*37
$GPRMC,133649.000,A,4841.2655,N,01132.3660,E,0.29,212.90,080809,,*0C
$GPGGA,133650.000,4841.2654,N,01132.3658,E,1,08,1.2,370.0,M,47.6,M,,0000*51
$GPGSA,A,3,14,26,29,12,09,30,27,04,,,,,2.0,1.2,1.7*37
$GPRMC,133650.000,A,4841.2654,N,01132.3658,E,0.38,212.63,080809,,*02
$GPGGA,133651.000,4841.2654,N,01132.3657,E,1,08,1.2,370.1,M,47.6,M,,0000*5E
$GPGSA,A,3,14,26,29,12,09,30,27,04,,,,,2.0,1.2,1.7*37
$GPGSV,3,1,09,12,81,324,27,09,53,135,36,30,49,270,33,26,45,231,32*7A
$GPGSV,3,2,09,27,42,135,34,14,39,292,26,04,22,077,17,02,21,113,38*7B
$GPGSV,3,3,09,29,12,206,29*47
$GPRMC,133651.000,A,4841.2654,N,01132.3657,E,0.24,204.05,080809,,*06
$GPGGA,133652.000,4841.2652,N,01132.3655,E,1,08,1.2,370.6,M,47.6,M,,0000*5E
$GPGSA,A,3,14,26,29,12,09,30,27,04,,,,,2.0,1.2,1.7*37
$GPRMC,133652.000,A,4841.2652,N,01132.3655,E,0.17,202.80,080809,,*0A
$GPGGA,133653.000,4841.2653,N,01132.3656,E,1,08,1.2,370.3,M,47.6,M,,0000*58
$GPGSA,A,3,14,26,29,12,09,30,27,04,,,,,2.0,1.2,1.7*37
$GPRMC,133653.000,A,4841.2653,N,01132.3656,E,0.36,51.06,080809,,*30
$GPGGA,133654.000,4841.2652,N,01132.3655,E,1,08,1.2,370.8,M,47.6,M,,0000*56
$GPGSA,A,3,14,26,29,12,09,30,27,04,,,,,2.0,1.2,1.7*37
$GPRMC,133654.000,A,4841.2652,N,01132.3655,E,0.20,210.03,080809,,*00
$GPGGA,133655.000,4841.2651,N,01132.3654,E,1,08,1.2,371.2,M,47.6,M,,0000*5E
$GPGSA,A,3,14,26,29,12,09,30,27,04,,,,,2.0,1.2,1.7*37
$GPRMC,133655.000,A,4841.2651,N,01132.3654,E,0.35,208.94,080809,,*00
$GPGGA,133656.000,4841.2650,N,01132.3652,E,1,08,1.2,371.6,M,47.6,M,,0000*5E
$GPGSA,A,3,14,26,29,12,09,30,27,04,,,,,2.0,1.2,1.7*37
$GPGSV,3,1,09,12,81,324,27,09,53,135,36,30,49,270,33,26,45,231,34*7C
$GPGSV,3,2,09,27,42,135,34,14,39,292,27,04,22,077,19,02,21,113,38*74
$GPGSV,3,3,09,29,12,206,30*4F
$GPRMC,133656.000,A,4841.2650,N,01132.3652,E,0.37,211.08,080809,,*0B
$GPGGA,133657.000,4841.2650,N,01132.3653,E,1,09,1.1,371.2,M,47.6,M,,0000*58
$GPGSA,A,3,14,26,29,12,09,30,27,02,04,,,,2.0,1.1,1.6*37
$GPRMC,133657.000,A,4841.2650,N,01132.3653,E,0.30,191.10,080809,,*0E
$GPGGA,133658.000,4841.2651,N,01132.3654,E,1,09,1.1,371.0,M,47.6,M,,0000*53
$GPGSA,A,3,14,26,29,12,09,30,27,02,04,,,,2.0,1.1,1.6*37
$GPRMC,133658.000,A,4841.2651,N,01132.3654,E,0.19,183.68,080809,,*00
$GPGGA,133659.000,4841.2651,N,01132.3655,E,1,09,1.1,370.6,M,47.6,M,,0000*54
$GPGSA,A,3,14,26,29,12,09,30,27,02,04,,,,2.0,1.1,1.6*37
$GPRMC,133659.000,A,4841.2651,N,01132.3655,E,0.12,159.80,080809,,*0A
$GPGGA,133700.000,4841.2652,N,01132.3657,E,1,09,1.1,370.6,M,47.6,M,,0000*58
$GPGSA,A,3,14,26,29,12,09,30,27,02,04,,,,2.0,1.1,1.6*37
$GPRMC,133700.000,A,4841.2652,N,01132.3657,E,0.27,41.69,080809,,*3F
$GPGGA,133701.000,4841.2653,N,01132.3658,E,1,09,1.1,370.4,M,47.6,M,,0000*55
$GPGSA,A,3,14,26,29,12,09,30,27,02,04,,,,2.0,1.1,1.6*37
$GPGSV,3,1,09,12,81,324,31,09,53,135,39,30,50,270,31,26,44,231,34*7F
$GPGSV,3,2,09,27,41,135,39,14,39,292,28,04,22,077,34,02,21,113,38*7A
$GPGSV,3,3,09,29,12,206,30*4F
$GPRMC,133701.000,A,4841.2653,N,01132.3658,E,0.17,262.14,080809,,*0A
$GPGGA,133702.000,4841.2656,N,01132.3659,E,1,09,1.1,369.6,M,47.6,M,,0000*58
$GPGSA,A,3,14,26,29,12,09,30,27,02,04,,,,2.0,1.1,1.6*37
$GPRMC,133702.000,A,4841.2656,N,01132.3659,E,0.20,332.80,080809,,*00
$GPGGA,133703.000,4841.2659,N,01132.3661,E,1,09,1.1,369.0,M,47.6,M,,0000*5B
$GPGSA,A,3,14,26,29,12,09,30,27,02,04,,,,2.0,1.1,1.6*37
$GPRMC,133703.000,A,4841.2659,N,01132.3661,E,0.05,344.75,080809,,*09
$GPGGA,133704.000,4841.2660,N,01132.3662,E,1,09,1.1,368.6,M,47.6,M,,0000*52
$GPGSA,A,3,14,26,29,12,09,30,27,02,04,,,,2.0,1.1,1.6*37
$GPRMC,133704.000,A,4841.2660,N,01132.3662,E,0.11,124.96,080809,,*0B
$GPGGA,133705.000,4841.2661,N,01132.3663,E,1,09,1.1,368.3,M,47.6,M,,0000*56
$GPGSA,A,3,14,26,29,12,09,30,27,02,04,,,,2.0,1.1,1.6*37
$GPRMC,133705.000,A,4841.2661,N,01132.3663,E,0.16,281.19,080809,,*06
$GPGGA,133706.000,4841.2663,N,01132.3664,E,1,09,1.1,368.0,M,47.6,M,,0000*53
$GPGSA,A,3,14,26,29,12,09,30,27,02,04,,,,2.0,1.1,1.6*37
$GPGSV,3,1,09,12,81,324,36,09,53,135,41,30,50,270,33,26,44,231,34*75
$GPGSV,3,2,09,27,41,135,38,14,39,292,33,04,22,077,38,02,21,113,38*7D
$GPGSV,3,3,09,29,12,206,31*4E
$GPRMC,133706.000,A,4841.2663,N,01132.3664,E,0.03,96.83,080809,,*33
$GPGGA,133707.000,4841.2664,N,01132.3665,E,1,09,1.1,367.8,M,47.6,M,,0000*53
$GPGSA,A,3,14,26,29,12,09,30,27,02,04,,,,2.0,1.1,1.6*37
$GPRMC,133707.000,A,4841.2664,N,01132.3665,E,0.06,83.96,080809,,*31
$GPGGA,133708.000,4841.2664,N,01132.3665,E,1,09,1.1,367.6,M,47.6,M,,0000*52
$GPGSA,A,3,14,26,29,12,09,30,27,02,04,,,,2.0,1.1,1.6*37
$GPRMC,133708.000,A,4841.2664,N,01132.3665,E,0.08,183.06,080809,,*08
$GPGGA,133709.000,4841.2665,N,01132.3666,E,1,09,1.1,367.4,M,47.6,M,,0000*53
$GPGSA,A,3,14,26,29,12,09,30,27,02,04,,,,2.0,1.1,1.6*37
$GPRMC,133709.000,A,4841.2665,N,01132.3666,E,0.10,184.45,080809,,*02
$GPGGA,133710.000,4841.2665,N,01132.3666,E,1,09,1.1,367.0,M,47.6,M,,0000*5F
$GPGSA,A,3,14,26,29,12,09,30,27,02,04,,,,2.0,1.1,1.6*37
$GPRMC,133710.000,A,4841.2665,N,01132.3666,E,0.36,207.78,080809,,*08
$GPGGA,133711.000,4841.2665,N,01132.3666,E,1,09,1.1,366.9,M,47.6,M,,0000*56
$GPGSA,A,3,14,26,29,12,09,30,27,02,04,,,,2.0,1.1,1.6*37
$GPGSV,3,1,09,12,81,324,36,09,53,135,42,30,50,270,34,26,44,231,33*76
$GPGSV,3,2,09,27,41,135,39,14,39,292,34,04,22,077,37,02,21,113,38*74
$GPGSV,3,3,09,29,12,206,25*4B
$GPRMC,133711.000,A,4841.2665,N,01132.3666,E,0.12,194.78,080809,,*06
$GPGGA,133712.000,4841.2665,N,01132.3666,E,1,09,1.1,366.6,M,47.6,M,,0000*5A
$GPGSA,A,3,14,26,29,12,09,30,27,02,04,,,,2.0,1.1,1.6*37
$GPRMC,133712.000,A,4841.2665,N,01132.3666,E,0.33,206.46,080809,,*03
$GPGGA,133713.000,4841.2666,N,01132.3667,E,1,09,1.1,366.5,M,47.6,M,,0000*5A
$GPGSA,A,3,14,26,29,12,09,30,27,02,04,,,,2.0,1.1,1.6*37
$GPRMC,133713.000,A,4841.2666,N,01132.3667,E,0.15,18.56,080809,,*38
$GPGGA,133714.000,4841.2668,N,01132.3666,E,1,09,1.1,366.3,M,47.6,M,,0000*54
$GPGSA,A,3,14,26,29,12,09,30,27,02,04,,,,2.0,1.1,1.6*37
$GPRMC,133714.000,A,4841.2668,N,01132.3666,E,0.76,321.19,080809,,*07
$GPGGA,133715.000,4841.2669,N,01132.3665,E,1,09,1.1,365.9,M,47.6,M,,0000*5E
$GPGSA,A,3,14,26,29,12,09,30,27,02,04,,,,2.0,1.1,1.6*37
$GPRMC,133715.000,A,4841.2669,N,01132.3665,E,0.24,199.44,080809,,*0A
$GPGGA,133716.000,4841.2668,N,01132.3665,E,1,09,1.1,365.6,M,47.6,M,,0000*53
$GPGSA,A,3,14,26,29,12,09,30,27,02,04,,,,2.0,1.1,1.6*37
$GPGSV,3,1,09,12,81,325,37,09,53,135,30,30,50,270,35,26,44,231,24*74
$GPGSV,3,2,09,27,41,135,28,14,39,292,35,04,22,077,30,02,21,113,29*72
$GPGSV,3,3,09,29,12,206,23*4D
$GPRMC,133716.000,A,4841.2668,N,01132.3665,E,0.39,208.06,080809,,*09
$GPGGA,133717.000,4841.2668,N,01132.3665,E,1,08,1.4,365.4,M,47.6,M,,0000*54
$GPGSA,A,3,14,26,12,09,30,27,02,04,,,,,2.6,1.4,2.2*38
$GPRMC,133717.000,A,4841.2668,N,01132.3665,E,0.19,214.44,080809,,*01
$GPGGA,133718.000,4841.2668,N,01132.3664,E,1,08,1.4,365.3,M,47.6,M,,0000*5D
$GPGSA,A,3,14,26,12,09,30,27,02,04,,,,,2.6,1.4,2.2*38
$GPRMC,133718.000,A,4841.2668,N,01132.3664,E,0.51,213.93,080809,,*0E
$GPGGA,133719.000,4841.2667,N,01132.3664,E,1,08,1.4,365.2,M,47.6,M,,0000*52
$GPGSA,A,3,14,26,12,09,30,27,02,04,,,,,2.6,1.4,2.2*38
$GPRMC,133719.000,A,4841.2667,N,01132.3664,E,0.15,214.81,080809,,*04
$GPGGA,133720.000,4841.2667,N,01132.3663,E,1,08,1.4,365.1,M,47.6,M,,0000*5C
$GPGSA,A,3,14,26,12,09,30,27,02,04,,,,,2.6,1.4,2.2*38
$GPRMC,133720.000,A,4841.2667,N,01132.3663,E,0.12,211.56,080809,,*01
$GPGGA,133721.000,4841.2668,N,01132.3663,E,1,09,1.1,364.8,M,47.6,M,,0000*5E
$GPGSA,A,3,14,26,29,12,09,30,27,02,04,,,,2.0,1.1,1.6*37
$GPGSV,3,1,09,12,81,325,38,09,53,135,30,30,50,270,36,26,44,231,26*7A
$GPGSV,3,2,09,27,41,135,29,14,39,292,36,04,22,077,20,02,21,113,29*71
$GPGSV,3,3,09,29,12,206,12*4F
$GPRMC,133721.000,A,4841.2668,N,01132.3663,E,0.18,219.18,080809,,*07
$GPGGA,133722.000,4841.2668,N,01132.3663,E,1,09,1.1,364.6,M,47.6,M,,0000*53
$GPGSA,A,3,14,26,29,12,09,30,27,02,04,,,,2.0,1.1,1.6*37
$GPRMC,133722.000,A,4841.2668,N,01132.3663,E,0.07,221.20,080809,,*0A
$GPGGA,133723.000,4841.2668,N,01132.3663,E,1,09,1.1,364.6,M,47.6,M,,0000*52
$GPGSA,A,3,14,26,29,12,09,30,27,02,04,,,,2.0,1.1,1.6*37
$GPRMC,133723.000,A,4841.2668,N,01132.3663,E,0.02,202.60,080809,,*0B
$GPGGA,133724.000,4841.2668,N,01132.3663,E,1,09,1.1,364.3,M,47.6,M,,0000*50
$GPGSA,A,3,14,26,29,12,09,30,27,02,04,,,,2.0,1.1,1.6*37
$GPRMC,133724.000,A,4841.2668,N,01132.3663,E,0.06,222.63,080809,,*09
$GPGGA,133725.000,4841.2667,N,01132.3662,E,1,09,1.1,364.2,M,47.6,M,,0000*5E
$GPGSA,A,3,14,26,29,12,09,30,27,02,04,,,,2.0,1.1,1.6*37
$GPRMC,133725.000,A,4841.2667,N,01132.3662,E,0.30,198.58,080809,,*09
$GPGGA,133726.000,4841.2665,N,01132.3661,E,1,09,1.1,364.4,M,47.6,M,,0000*5A
$GPGSA,A,3,14,26,29,12,09,30,27,02,04,,,,2.0,1.1,1.6*37
$GPGSV,3,1,09,12,81,325,38,09,53,135,31,30,50,270,36,26,44,231,28*75
$GPGSV,3,2,09,27,41,135,30,14,39,292,38,04,22,077,20,02,21,113,28*76
$GPGSV,3,3,09,29,12,206,14*49
$GPRMC,133726.000,A,4841.2665,N,01132.3661,E,0.46,219.51,080809,,*09
$GPGGA,133727.000,4841.2666,N,01132.3661,E,1,09,1.1,364.5,M,47.6,M,,0000*59
$GPGSA,A,3,14,26,29,12,09,30,27,02,04,,,,2.0,1.1,1.6*37
$GPRMC,133727.000,A,4841.2666,N,01132.3661,E,0.26,17.46,080809,,*37
$GPGGA,133728.000,4841.2667,N,01132.3662,E,1,09,1.1,364.6,M,47.6,M,,0000*57
$GPGSA,A,3,14,26,29,12,09,30,27,02,04,,,,2.0,1.1,1.6*37
$GPRMC,133728.000,A,4841.2667,N,01132.3662,E,0.21,22.63,080809,,*3C
$GPGGA,133729.000,4841.2668,N,01132.3662,E,1,09,1.1,364.8,M,47.6,M,,0000*57
$GPGSA,A,3,14,26,29,12,09,30,27,02,04,,,,2.0,1.1,1.6*37
$GPRMC,133729.000,A,4841.2668,N,01132.3662,E,0.35,16.26,080809,,*31
$GPGGA,133730.000,4841.2668,N,01132.3663,E,1,09,1.1,365.0,M,47.6,M,,0000*57
$GPGSA,A,3,14,26,29,12,09,30,27,02,04,,,,2.0,1.1,1.6*37
$GPRMC,133730.000,A,4841.2668,N,01132.3663,E,0.03,295.28,080809,,*0A
$GPGGA,133731.000,4841.2670,N,01132.3664,E,1,09,1.1,365.1,M,47.6,M,,0000*59
$GPGSA,A,3,14,26,29,12,09,30,27,02,04,,,,2.0,1.1,1.6*37
$GPGSV,3,1,09,12,81,325,38,09,53,135,32,30,50,270,36,26,44,231,29*77
$GPGSV,3,2,09,27,41,135,31,14,39,292,39,04,22,077,20,02,21,113,28*76
$GPGSV,3,3,09,29,12,206,14*49
$GPRMC,133731.000,A,4841.2670,N,01132.3664,E,0.01,162.23,080809,,*07
$GPGGA,133732.000,4841.2671,N,01132.3665,E,1,09,1.1,365.4,M,47.6,M,,0000*5F
$GPGSA,A,3,14,26,29,12,09,30,27,02,04,,,,2.0,1.1,1.6*37
$GPRMC,133732.000,A,4841.2671,N,01132.3665,E,0.46,25.59,080809,,*38
$GPGGA,133733.000,4841.2671,N,01132.3665,E,1,09,1.1,365.7,M,47.6,M,,0000*5D
$GPGSA,A,3,14,26,29,12,09,30,27,02,04,,,,2.0,1.1,1.6*37
$GPRMC,133733.000,A,4841.2671,N,01132.3665,E,0.35,220.05,080809,,*03
$GPGGA,133734.000,4841.2671,N,01132.3664,E,1,09,1.1,366.1,M,47.6,M,,0000*5E
$GPGSA,A,3,14,26,29,12,09,30,27,02,04,,,,2.0,1.1,1.6*37
$GPRMC,133734.000,A,4841.2671,N,01132.3664,E,0.32,248.48,080809,,*05
$GPGGA,133735.000,4841.2671,N,01132.3663,E,1,09,1.1,366.7,M,47.6,M,,0000*5E
$GPGSA,A,3,14,26,29,12,09,30,27,02,04,,,,2.0,1.1,1.6*37
$GPRMC,133735.000,A,4841.2671,N,01132.3663,E,0.14,15.17,080809,,*37
$GPGGA,133736.000,4841.2671,N,01132.3663,E,1,09,1.1,367.2,M,47.6,M,,0000*59
$GPGSA,A,3,14,26,29,12,09,30,27,02,04,,,,2.0,1.1,1.6*37
$GPGSV,3,1,09,12,81,326,38,09,53,135,32,30,50,270,37,26,44,231,30*7D
$GPGSV,3,2,09,27,41,135,31,14,39,292,39,04,22,077,21,02,21,113,27*78
$GPGSV,3,3,09,29,12,206,15*48
$GPRMC,133736.000,A,4841.2671,N,01132.3663,E,0.16,190.35,080809,,*0A
$GPGGA,133737.000,4841.2669,N,01132.3662,E,1,09,1.1,367.5,M,47.6,M,,0000*57
$GPGSA,A,3,14,26,29,12,09,30,27,02,04,,,,2.0,1.1,1.6*37
$GPRMC,133737.000,A,4841.2669,N,01132.3662,E,0.33,193.87,080809,,*0E
$GPGGA,133738.000,4841.2670,N,01132.3663,E,1,09,1.1,367.5,M,47.6,M,,0000*51
$GPGSA,A,3,14,26,29,12,09,30,27,02,04,,,,2.0,1.1,1.6*37
$GPRMC,133738.000,A,4841.2670,N,01132.3663,E,0.33,65.62,080809,,*3B
$GPGGA,133739.000,4841.2670,N,01132.3664,E,1,09,1.1,367.8,M,47.6,M,,0000*5A
$GPGSA,A,3,14,26,29,12,09,30,27,02,04,,,,2.0,1.1,1.6*37
$GPRMC,133739.000,A,4841.2670,N,01132.3664,E,0.10,42.42,080809,,*3B
$GPGGA,133740.000,4841.2668,N,01132.3661,E,1,08,1.4,368.4,M,47.6,M,,0000*5F
$GPGSA,A,3,14,26,12,09,30,27,02,04,,,,,2.6,1.4,2.2*38
$GPRMC,133740.000,A,4841.2668,N,01132.3661,E,0.72,228.30,080809,,*06
$GPGGA,133741.000,4841.2666,N,01132.3659,E,1,09,1.1,368.9,M,47.6,M,,0000*52
$GPGSA,A,3,14,26,29,12,09,30,27,02,04,,,,2.0,1.1,1.6*37
$GPGSV,3,1,09,12,81,326,38,09,53,135,32,30,50,270,38,26,44,231,30*72
$GPGSV,3,2,09,27,41,135,32,14,39,292,39,04,22,077,21,02,21,113,26*7A
$GPGSV,3,3,09,29,12,206,14*49
$GPRMC,133741.000,A,4841.2666,N,01132.3659,E,0.54,218.41,080809,,*03
$GPGGA,133742.000,4841.2665,N,01132.3658,E,1,09,1.1,369.0,M,47.6,M,,0000*5B
$GPGSA,A,3,14,26,29,12,09,30,27,02,04,,,,2.0,1.1,1.6*37
$GPRMC,133742.000,A,4841.2665,N,01132.3658,E,0.53,219.98,080809,,*00
$GPGGA,133743.000,4841.2665,N,01132.3659,E,1,09,1.1,368.8,M,47.6,M,,0000*52
$GPGSA,A,3,14,26,29,12,09,30,27,02,04,,,,2.0,1.1,1.6*37
$GPRMC,133743.000,A,4841.2665,N,01132.3659,E,0.42,44.51,080809,,*3F
$GPGGA,133744.000,4841.2665,N,01132.3659,E,1,08,1.5,369.0,M,47.6,M,,0000*59
$GPGSA,A,3,14,26,29,12,09,30,27,02,,,,,2.5,1.5,2.0*37
$GPRMC,133744.000,A,4841.2665,N,01132.3659,E,0.13,246.47,080809,,*0B
$GPGGA,133745.000,4841.2665,N,01132.3659,E,1,09,1.1,369.2,M,47.6,M,,0000*5F
$GPGSA,A,3,14,26,29,12,09,30,27,02,04,,,,2.0,1.1,1.6*37
$GPRMC,133745.000,A,4841.2665,N,01132.3659,E,0.41,87.04,080809,,*35
$GPGGA,133746.000,4841.2665,N,01132.3662,E,1,09,1.1,369.2,M,47.6,M,,0000*54
$GPGSA,A,3,14,26,29,12,09,30,27,02,04,,,,2.0,1.1,1.6*37
$GPGSV,3,1,09,12,81,327,38,09,53,135,41,30,50,271,38,26,44,231,34*72
$GPGSV,3,2,09,27,41,135,36,14,39,292,39,04,23,077,33,02,21,113,31*7A
$GPGSV,3,3,09,29,12,206,23*4D
$GPRMC,133746.000,A,4841.2665,N,01132.3662,E,0.78,105.29,080809,,*00
$GPGGA,133747.000,4841.2665,N,01132.3665,E,1,09,1.1,369.1,M,47.6,M,,0000*51
$GPGSA,A,3,14,26,29,12,09,30,27,02,04,,,,2.0,1.1,1.6*37
$GPRMC,133747.000,A,4841.2665,N,01132.3665,E,0.15,124.80,080809,,*0D
$GPGGA,133748.000,4841.2666,N,01132.3666,E,1,09,1.1,368.8,M,47.6,M,,0000*56
$GPGSA,A,3,14,26,29,12,09,30,27,02,04,,,,2.0,1.1,1.6*37
$GPRMC,133748.000,A,4841.2666,N,01132.3666,E,0.03,282.35,080809,,*04
$GPGGA,133749.000,4841.2667,N,01132.3667,E,1,09,1.1,368.6,M,47.6,M,,0000*59
$GPGSA,A,3,14,26,29,12,09,30,27,02,04,,,,2.0,1.1,1.6*37
$GPRMC,133749.000,A,4841.2667,N,01132.3667,E,0.05,50.42,080809,,*3E
$GPGGA,133750.000,4841.2667,N,01132.3667,E,1,09,1.1,368.3,M,47.6,M,,0000*54
$GPGSA,A,3,14,26,29,12,09,30,27,02,04,,,,2.0,1.1,1.6*37
$GPRMC,133750.000,A,4841.2667,N,01132.3667,E,0.06,181.94,080809,,*03
$GPGGA,133751.000,4841.2667,N,01132.3668,E,1,09,1.1,368.1,M,47.6,M,,0000*58
$GPGSA,A,3,14,26,29,12,09,30,27,02,04,,,,2.0,1.1,1.6*37
$GPGSV,3,1,09,12,81,327,37,09,53,135,42,30,50,271,38,26,44,231,31*7B
$GPGSV,3,2,09,27,41,135,41,14,39,292,38,04,23,077,36,02,21,113,38*77
$GPGSV,3,3,09,29,12,206,24*4A
$GPRMC,133751.000,A,4841.2667,N,01132.3668,E,0.04,91.57,080809,,*30
$GPGGA,133752.000,4841.2667,N,01132.3668,E,1,09,1.1,367.9,M,47.6,M,,0000*5C
$GPGSA,A,3,14,26,29,12,09,30,27,02,04,,,,2.0,1.1,1.6*37
$GPRMC,133752.000,A,4841.2667,N,01132.3668,E,0.04,132.28,080809,,*03
$GPGGA,133753.000,4841.2667,N,01132.3668,E,1,09,1.1,367.7,M,47.6,M,,0000*53
$GPGSA,A,3,14,26,29,12,09,30,27,02,04,,,,2.0,1.1,1.6*37
$GPRMC,133753.000,A,4841.2667,N,01132.3668,E,0.04,153.93,080809,,*05
$GPGGA,133754.000,4841.2667,N,01132.3669,E,1,09,1.1,367.6,M,47.6,M,,0000*54
$GPGSA,A,3,14,26,29,12,09,30,27,02,04,,,,2.0,1.1,1.6*37
$GPRMC,133754.000,A,4841.2667,N,01132.3669,E,0.05,132.42,080809,,*09
$GPGGA,133755.000,4841.2667,N,01132.3669,E,1,09,1.1,367.5,M,47.6,M,,0000*56
$GPGSA,A,3,14,26,29,12,09,30,27,02,04,,,,2.0,1.1,1.6*37
$GPRMC,133755.000,A,4841.2667,N,01132.3669,E,0.04,119.62,080809,,*02
$GPGGA,133756.000,4841.2667,N,01132.3669,E,1,09,1.1,367.3,M,47.6,M,,0000*53
$GPGSA,A,3,14,26,29,12,09,30,27,02,04,,,,2.0,1.1,1.6*37
$GPGSV,3,1,09,12,81,327,37,09,53,135,42,30,50,271,38,26,44,231,31*7B
$GPGSV,3,2,09,27,41,135,41,14,39,292,38,04,23,077,37,02,21,113,38*76
$GPGSV,3,3,09,29,12,206,25*4B
$GPRMC,133756.000,A,4841.2667,N,01132.3669,E,0.08,168.04,080809,,*0B
$GPGGA,133757.000,4841.2667,N,01132.3669,E,1,09,1.1,367.2,M,47.6,M,,0000*53
$GPGSA,A,3,14,26,29,12,09,30,27,02,04,,,,2.0,1.1,1.6*37
$GPRMC,133757.000,A,4841.2667,N,01132.3669,E,0.04,126.87,080809,,*07
$GPGGA,133758.000,4841.2666,N,01132.3669,E,1,09,1.1,367.1,M,47.6,M,,0000*5E
$GPGSA,A,3,14,26,29,12,09,30,27,02,04,,,,2.0,1.1,1.6*37
$GPRMC,133758.000,A,4841.2666,N,01132.3669,E,0.04,150.88,080809,,*07
$GPGGA,133759.000,4841.2667,N,01132.3670,E,1,09,1.1,367.0,M,47.6,M,,0000*57
$GPGSA,A,3,14,26,29,12,09,30,27,02,04,,,,2.0,1.1,1.6*37
$GPRMC,133759.000,A,4841.2667,N,01132.3670,E,0.07,69.19,080809,,*3F
$GPGGA,133800.000,4841.2667,N,01132.3670,E,1,09,1.1,367.1,M,47.6,M,,0000*55
$GPGSA,A,3,14,26,29,12,09,30,27,02,04,,,,2.0,1.1,1.6*37
$GPRMC,133800.000,A,4841.2667,N,01132.3670,E,0.11,49.80,080809,,*39
$GPGGA,133801.000,4841.2667,N,01132.3670,E,1,09,1.1,367.0,M,47.6,M,,0000*55
$GPGSA,A,3,14,26,29,12,09,30,27,02,04,,,,2.0,1.1,1.6*37
$GPGSV,3,1,09,12,81,327,36,09,53,135,42,30,50,271,38,26,44,231,31*7A
$GPGSV,3,2,09,27,41,135,41,14,39,292,37,04,23,077,38,02,21,113,38*76
$GPGSV,3,3,09,29,12,206,24*4A
$GPRMC,133801.000,A,4841.2667,N,01132.3670,E,0.09,192.31,080809,,*0C
$GPGGA,133802.000,4841.2666,N,01132.3670,E,1,09,1.1,366.7,M,47.6,M,,0000*51
$GPGSA,A,3,14,26,29,12,09,30,27,02,04,,,,2.0,1.1,1.6*37
$GPRMC,133802.000,A,4841.2666,N,01132.3670,E,0.31,205.73,080809,,*0E
$GPGGA,133803.000,4841.2666,N,01132.3669,E,1,09,1.1,366.6,M,47.6,M,,0000*59
$GPGSA,A,3,14,26,29,12,09,30,27,02,04,,,,2.0,1.1,1.6*37
$GPRMC,133803.000,A,4841.2666,N,01132.3669,E,0.04,113.52,080809,,*06
$GPGGA,133804.000,4841.2666,N,01132.3670,E,1,09,1.1,366.5,M,47.6,M,,0000*55
$GPGSA,A,3,14,26,29,12,09,30,27,02,04,,,,2.0,1.1,1.6*37
$GPRMC,133804.000,A,4841.2666,N,01132.3670,E,0.13,192.64,080809,,*03
$GPGGA,133805.000,4841.2666,N,01132.3669,E,1,09,1.1,366.5,M,47.6,M,,0000*5C
$GPGSA,A,3,14,26,29,12,09,30,27,02,04,,,,2.0,1.1,1.6*37
$GPRMC,133805.000,A,4841.2666,N,01132.3669,E,0.17,203.20,080809,,*05
$GPGGA,133806.000,4841.2666,N,01132.3669,E,1,09,1.1,366.4,M,47.6,M,,0000*5E
$GPGSA,A,3,14,26,29,12,09,30,27,02,04,,,,2.0,1.1,1.6*37
$GPGSV,3,1,09,12,81,327,36,09,53,135,42,30,50,271,38,26,44,231,31*7A
$GPGSV,3,2,09,27,41,135,41,14,39,292,37,04,23,077,38,02,21,113,38*76
$GPGSV,3,3,09,29,12,206,24*4A
$GPRMC,133806.000,A,4841.2666,N,01132.3669,E,0.04,155.79,080809,,*08
$GPGGA,133807.000,4841.2665,N,01132.3669,E,1,09,1.1,366.3,M,47.6,M,,0000*5B
$GPGSA,A,3,14,26,29,12,09,30,27,02,04,,,,2.0,1.1,1.6*37
$GPRMC,133807.000,A,4841.2665,N,01132.3669,E,0.13,194.84,080809,,*03
$GPGGA,133808.000,4841.2666,N,01132.3670,E,1,09,1.1,366.3,M,47.6,M,,0000*5F
$GPGSA,A,3,14,26,29,12,09,30,27,02,04,,,,2.0,1.1,1.6*37
$GPRMC,133808.000,A,4841.2666,N,01132.3670,E,0.18,51.34,080809,,*3F
$GPGGA,133809.000,4841.2665,N,01132.3669,E,1,09,1.1,366.1,M,47.6,M,,0000*57
$GPGSA,A,3,14,26,29,12,09,30,27,02,04,,,,2.0,1.1,1.6*37
$GPRMC,133809.000,A,4841.2665,N,01132.3669,E,0.33,211.38,080809,,*06
$GPGGA,133810.000,4841.2665,N,01132.3669,E,1,09,1.1,366.0,M,47.6,M,,0000*5E
$GPGSA,A,3,14,26,29,12,09,30,27,02,04,,,,2.0,1.1,1.6*37
$GPRMC,133810.000,A,4841.2665,N,01132.3669,E,0.13,205.59,080809,,*0E
$GPGGA,133811.000,4841.2666,N,01132.3670,E,1,09,1.1,366.1,M,47.6,M,,0000*55
$GPGSA,A,3,14,26,29,12,09,30,27,02,04,,,,2.0,1.1,1.6*37
$GPGSV,3,1,09,12,81,327,36,09,53,135,42,30,50,271,38,26,44,231,32*79
$GPGSV,3,2,09,27,41,135,40,14,39,292,36,04,23,077,37,02,21,113,37*76
$GPGSV,3,3,09,29,12,206,24*4A
$GPRMC,133811.000,A,4841.2666,N,01132.3670,E,0.03,136.87,080809,,*05
$GPGGA,133812.000,4841.2666,N,01132.3670,E,1,09,1.1,366.1,M,47.6,M,,0000*56
$GPGSA,A,3,14,26,29,12,09,30,27,02,04,,,,2.0,1.1,1.6*37
$GPRMC,133812.000,A,4841.2666,N,01132.3670,E,0.04,127.54,080809,,*0F
$GPGGA,133813.000,4841.2666,N,01132.3670,E,1,09,1.1,366.1,M,47.6,M,,0000*57
$GPGSA,A,3,14,26,29,12,09,30,27,02,04,,,,2.0,1.1,1.6*37
$GPRMC,133813.000,A,4841.2666,N,01132.3670,E,0.04,159.02,080809,,*04
$GPGGA,133814.000,4841.2666,N,01132.3670,E,1,09,1.1,366.1,M,47.6,M,,0000*50
$GPGSA,A,3,14,26,29,12,09,30,27,02,04,,,,2.0,1.1,1.6*37
$GPRMC,133814.000,A,4841.2666,N,01132.3670,E,0.05,142.79,080809,,*04
$GPGGA,133815.000,4841.2666,N,01132.3670,E,1,09,1.1,366.1,M,47.6,M,,0000*51
$GPGSA,A,3,14,26,29,12,09,30,27,02,04,,,,2.0,1.1,1.6*37
$GPRMC,133815.000,A,4841.2666,N,01132.3670,E,0.04,99.49,080809,,*30
$GPGGA,133816.000,4841.2666,N,01132.3670,E,1,09,1.1,366.1,M,47.6,M,,0000*52
$GPGSA,A,3,14,26,29,12,09,30,27,02,04,,,,2.0,1.1,1.6*37
$GPGSV,3,1,09,12,81,328,35,09,52,135,42,30,50,271,37,26,44,231,29*71
$GPGSV,3,2,09,27,41,135,40,14,39,292,36,04,23,076,37,02,21,112,37*76
$GPGSV,3,3,09,29,12,206,25*4B
$GPRMC,133816.000,A,4841.2666,N,01132.3670,E,0.03,105.48,080809,,*01
$GPGGA,133817.000,4841.2666,N,01132.3671,E,1,09,1.1,366.1,M,47.6,M,,0000*52
$GPGSA,A,3,14,26,29,12,09,30,27,02,04,,,,2.0,1.1,1.6*37
$GPRMC,133817.000,A,4841.2666,N,01132.3671,E,0.03,107.92,080809,,*04
$GPGGA,133818.000,4841.2666,N,01132.3671,E,1,09,1.1,366.1,M,47.6,M,,0000*5D
$GPGSA,A,3,14,26,29,12,09,30,27,02,04,,,,2.0,1.1,1.6*37
$GPRMC,133818.000,A,4841.2666,N,01132.3671,E,0.07,197.66,080809,,*0D
$GPGGA,133819.000,4841.2666,N,01132.3671,E,1,09,1.1,366.1,M,47.6,M,,0000*5C
$GPGSA,A,3,14,26,29,12,09,30,27,02,04,,,,2.0,1.1,1.6*37
$GPRMC,133819.000,A,4841.2666,N,01132.3671,E,0.04,147.76,080809,,*03
$GPGGA,133820.000,4841.2666,N,01132.3671,E,1,09,1.1,366.1,M,47.6,M,,0000*56
$GPGSA,A,3,14,26,29,12,09,30,27,02,04,,,,2.0,1.1,1.6*37
$GPRMC,133820.000,A,4841.2666,N,01132.3671,E,0.05,70.75,080809,,*3E
$GPGGA,133821.000,4841.2667,N,01132.3671,E,1,09,1.1,366.1,M,47.6,M,,0000*56
$GPGSA,A,3,14,26,29,12,09,30,27,02,04,,,,2.0,1.1,1.6*37
$GPGSV,3,1,09,12,81,328,35,09,52,135,42,30,50,271,37,26,44,231,29*71
$GPGSV,3,2,09,27,41,135,41,14,39,292,36,04,23,076,37,02,21,112,37*77
$GPGSV,3,3,09,29,12,206,25*4B
$GPRMC,133821.000,A,4841.2667,N,01132.3671,E,0.06,159.72,080809,,*00
$GPGGA,133822.000,4841.2667,N,01132.3671,E,1,09,1.1,366.0,M,47.6,M,,0000*54
$GPGSA,A,3,14,26,29,12,09,30,27,02,04,,,,2.0,1.1,1.6*37
$GPRMC,133822.000,A,4841.2667,N,01132.3671,E,0.02,112.61,080809,,*0A
$GPGGA,133823.000,4841.2667,N,01132.3671,E,1,09,1.1,366.0,M,47.6,M,,0000*55
$GPGSA,A,3,14,26,29,12,09,30,27,02,04,,,,2.0,1.1,1.6*37
$GPRMC,133823.000,A,4841.2667,N,01132.3671,E,0.05,115.39,080809,,*06
$GPGGA,133824.000,4841.2667,N,01132.3671,E,1,09,1.1,366.0,M,47.6,M,,0000*52
$GPGSA,A,3,14,26,29,12,09,30,27,02,04,,,,2.0,1.1,1.6*37
$GPRMC,133824.000,A,4841.2667,N,01132.3671,E,0.05,146.62,080809,,*09
$GPGGA,133825.000,4841.2667,N,01132.3671,E,1,09,1.1,366.0,M,47.6,M,,0000*53
$GPGSA,A,3,14,26,29,12,09,30,27,02,04,,,,2.0,1.1,1.6*37
$GPRMC,133825.000,A,4841.2667,N,01132.3671,E,0.04,141.33,080809,,*0A
$GPGGA,133826.000,4841.2667,N,01132.3672,E,1,09,1.1,366.0,M,47.6,M,,0000*53
$GPGSA,A,3,14,26,29,12,09,30,27,02,04,,,,2.0,1.1,1.6*37
$GPGSV,3,1,09,12,81,329,36,09,52,135,42,30,50,271,38,26,44,231,30*74
$GPGSV,3,2,09,27,41,135,41,14,39,292,36,04,23,076,38,02,21,112,37*78
$GPGSV,3,3,09,29,13,206,26*49
$GPRMC,133826.000,A,4841.2667,N,01132.3672,E,0.04,130.88,080809,,*0C
$GPGGA,133827.000,4841.2667,N,01132.3672,E,1,09,1.1,366.0,M,47.6,M,,0000*52
$GPGSA,A,3,14,26,29,12,09,30,27,02,04,,,,2.0,1.1,1.6*37
$GPRMC,133827.000,A,4841.2667,N,01132.3672,E,0.05,119.19,080809,,*0F
$GPGGA,133828.000,4841.2667,N,01132.3672,E,1,09,1.1,366.0,M,47.6,M,,0000*5D
$GPGSA,A,3,14,26,29,12,09,30,27,02,04,,,,2.0,1.1,1.6*37
$GPRMC,133828.000,A,4841.2667,N,01132.3672,E,0.04,146.86,080809,,*0D
$GPGGA,133829.000,4841.2667,N,01132.3672,E,1,09,1.1,366.0,M,47.6,M,,0000*5C
$GPGSA,A,3,14,26,29,12,09,30,27,02,04,,,,2.0,1.1,1.6*37
$GPRMC,133829.000,A,4841.2667,N,01132.3672,E,0.05,128.24,080809,,*0D
$GPGGA,133830.000,4841.2667,N,01132.3672,E,1,09,1.1,366.0,M,47.6,M,,0000*54
$GPGSA,A,3,14,26,29,12,09,30,27,02,04,,,,2.0,1.1,1.6*37
$GPRMC,133830.000,A,4841.2667,N,01132.3672,E,0.04,121.57,080809,,*09
$GPGGA,133831.000,4841.2667,N,01132.3672,E,1,09,1.1,366.0,M,47.6,M,,0000*55
$GPGSA,A,3,14,26,29,12,09,30,27,02,04,,,,2.0,1.1,1.6*37
$GPGSV,3,1,09,12,81,329,36,09,52,135,42,30,50,271,38,26,44,231,30*74
$GPGSV,3,2,09,27,41,135,41,14,39,292,36,04,23,076,38,02,21,112,37*78
$GPGSV,3,3,09,29,13,206,27*48
$GPRMC,133831.000,A,4841.2667,N,01132.3672,E,0.03,124.17,080809,,*0E
$GPGGA,133832.000,4841.2667,N,01132.3672,E,1,09,1.1,366.0,M,47.6,M,,0000*56
$GPGSA,A,3,14,26,29,12,09,30,27,02,04,,,,2.0,1.1,1.6*37
$GPRMC,133832.000,A,4841.2667,N,01132.3672,E,0.05,118.98,080809,,*03
$GPGGA,133833.000,4841.2667,N,01132.3672,E,1,09,1.1,366.0,M,47.6,M,,0000*57
$GPGSA,A,3,14,26,29,12,09,30,27,02,04,,,,2.0,1.1,1.6*37
$GPRMC,133833.000,A,4841.2667,N,01132.3672,E,0.05,123.52,080809,,*0C
$GPGGA,133834.000,4841.2667,N,01132.3673,E,1,09,1.1,366.0,M,47.6,M,,0000*51
$GPGSA,A,3,14,26,29,12,09,30,27,02,04,,,,2.0,1.1,1.6*37
$GPRMC,133834.000,A,4841.2667,N,01132.3673,E,0.03,117.63,080809,,*09
$GPGGA,133835.000,4841.2667,N,01132.3673,E,1,09,1.1,366.0,M,47.6,M,,0000*50
$GPGSA,A,3,14,26,29,12,09,30,27,02,04,,,,2.0,1.1,1.6*37
$GPRMC,133835.000,A,4841.2667,N,01132.3673,E,0.06,127.45,080809,,*0A
$GPGGA,133836.000,4841.2667,N,01132.3673,E,1,09,1.1,366.0,M,47.6,M,,0000*53
$GPGSA,A,3,14,26,29,12,09,30,27,02,04,,,,2.0,1.1,1.6*37
$GPGSV,3,1,09,12,81,329,37,09,52,135,42,30,50,271,38,26,44,231,31*74
$GPGSV,3,2,09,27,41,135,41,14,39,292,36,04,23,076,39,02,21,112,37*79
$GPGSV,3,3,09,29,13,206,28*47
$GPRMC,133836.000,A,4841.2667,N,01132.3673,E,0.04,118.46,080809,,*04
$GPGGA,133837.000,4841.2667,N,01132.3673,E,1,09,1.1,366.0,M,47.6,M,,0000*52
$GPGSA,A,3,14,26,29,12,09,30,27,02,04,,,,2.0,1.1,1.6*37
$GPRMC,133837.000,A,4841.2667,N,01132.3673,E,0.05,132.96,080809,,*01
$GPGGA,133838.000,4841.2667,N,01132.3673,E,1,09,1.1,366.0,M,47.6,M,,0000*5D
$GPGSA,A,3,14,26,29,12,09,30,27,02,04,,,,2.0,1.1,1.6*37
$GPRMC,133838.000,A,4841.2667,N,01132.3673,E,0.04,128.60,080809,,*0D
$GPGGA,133839.000,4841.2667,N,01132.3673,E,1,09,1.1,366.0,M,47.6,M,,0000*5C
$GPGSA,A,3,14,26,29,12,09,30,27,02,04,,,,2.0,1.1,1.6*37
$GPRMC,133839.000,A,4841.2667,N,01132.3673,E,0.06,141.83,080809,,*0C
$GPGGA,133840.000,4841.2667,N,01132.3673,E,1,09,1.1,366.0,M,47.6,M,,0000*52
$GPGSA,A,3,14,26,29,12,09,30,27,02,04,,,,2.0,1.1,1.6*37
$GPRMC,133840.000,A,4841.2667,N,01132.3673,E,0.04,120.91,080809,,*04
$GPGGA,133841.000,4841.2667,N,01132.3673,E,1,09,1.1,366.0,M,47.6,M,,0000*53
$GPGSA,A,3,14,26,29,12,09,30,27,02,04,,,,2.0,1.1,1.6*37
$GPGSV,3,1,09,12,81,329,37,09,52,135,42,30,50,271,38,26,44,231,32*77
$GPGSV,3,2,09,27,41,135,41,14,39,292,36,04,23,076,39,02,21,112,37*79
$GPGSV,3,3,09,29,13,206,28*47
$GPRMC,133841.000,A,4841.2667,N,01132.3673,E,0.06,128.58,080809,,*0A
$GPGGA,133842.000,4841.2667,N,01132.3673,E,1,09,1.1,366.0,M,47.6,M,,0000*50
$GPGSA,A,3,14,26,29,12,09,30,27,02,04,,,,2.0,1.1,1.6*37
$GPRMC,133842.000,A,4841.2667,N,01132.3673,E,0.04,135.84,080809,,*06
$GPGGA,133843.000,4841.2667,N,01132.3673,E,1,09,1.1,366.0,M,47.6,M,,0000*51
$GPGSA,A,3,14,26,29,12,09,30,27,02,04,,,,2.0,1.1,1.6*37
$GPRMC,133843.000,A,4841.2667,N,01132.3673,E,0.06,121.20,080809,,*0E
$GPGGA,133844.000,4841.2667,N,01132.3673,E,1,09,1.1,366.0,M,47.6,M,,0000*56
$GPGSA,A,3,14,26,29,12,09,30,27,02,04,,,,2.0,1.1,1.6*37
$GPRMC,133844.000,A,4841.2667,N,01132.3673,E,0.05,111.98,080809,,*0A
$GPGGA,133845.000,4841.2667,N,01132.3673,E,1,09,1.1,366.0,M,47.6,M,,0000*57
$GPGSA,A,3,14,26,29,12,09,30,27,02,04,,,,2.0,1.1,1.6*37
$GPRMC,133845.000,A,4841.2667,N,01132.3673,E,0.05,167.57,080809,,*09
$GPGGA,133846.000,4841.2667,N,01132.3673,E,1,09,1.1,366.0,M,47.6,M,,0000*54
$GPGSA,A,3,14,26,29,12,09,30,27,02,04,,,,2.0,1.1,1.6*37
$GPGSV,3,1,09,12,81,330,37,09,52,135,42,30,50,271,36,26,44,230,31*73
$GPGSV,3,2,09,27,41,135,40,14,39,291,35,04,23,076,39,02,21,112,37*78
$GPGSV,3,3,09,29,13,206,27*48
$GPRMC,133846.000,A,4841.2667,N,01132.3673,E,0.53,19.81,080809,,*3A
$GPGGA,133847.000,4841.2669,N,01132.3674,E,1,09,1.1,366.0,M,47.6,M,,0000*5C
$GPGSA,A,3,14,26,29,12,09,30,27,02,04,,,,2.0,1.1,1.6*37
$GPRMC,133847.000,A,4841.2669,N,01132.3674,E,0.90,14.90,080809,,*30
$GPGGA,133848.000,4841.2672,N,01132.3674,E,1,09,1.1,366.0,M,47.6,M,,0000*59
$GPGSA,A,3,14,26,29,12,09,30,27,02,04,,,,2.0,1.1,1.6*37
$GPRMC,133848.000,A,4841.2672,N,01132.3674,E,0.97,347.77,080809,,*0E
$GPGGA,133849.000,4841.2676,N,01132.3675,E,1,09,1.1,365.9,M,47.6,M,,0000*57
$GPGSA,A,3,14,26,29,12,09,30,27,02,04,,,,2.0,1.1,1.6*37
$GPRMC,133849.000,A,4841.2676,N,01132.3675,E,1.53,33.08,080809,,*3B
$GPGGA,133850.000,4841.2678,N,01132.3677,E,1,09,1.1,365.9,M,47.6,M,,0000*53
$GPGSA,A,3,14,26,29,12,09,30,27,02,04,,,,2.0,1.1,1.6*37
$GPRMC,133850.000,A,4841.2678,N,01132.3677,E,0.64,358.64,080809,,*0E
$GPGGA,133851.000,4841.2679,N,01132.3677,E,1,09,1.1,366.0,M,47.6,M,,0000*59
$GPGSA,A,3,14,26,29,12,09,30,27,02,04,,,,2.0,1.1,1.6*37
$GPGSV,3,1,09,12,81,330,36,09,52,135,29,30,50,271,26,26,44,230,32*7D
$GPGSV,3,2,09,27,41,135,29,14,39,291,27,04,23,076,32,02,21,112,33*7B
$GPGSV,3,3,09,29,13,206,28*47
$GPRMC,133851.000,A,4841.2679,N,01132.3677,E,0.55,1.02,080809,,*03
$GPGGA,133852.000,4841.2679,N,01132.3677,E,1,09,1.1,365.9,M,47.6,M,,0000*50
$GPGSA,A,3,14,26,29,12,09,30,27,02,04,,,,2.0,1.1,1.6*37
$GPRMC,133852.000,A,4841.2679,N,01132.3677,E,0.06,301.69,080809,,*08
$GPGGA,133853.000,4841.2680,N,01132.3676,E,1,09,1.1,365.8,M,47.6,M,,0000*57
$GPGSA,A,3,14,26,29,12,09,30,27,02,04,,,,2.0,1.1,1.6*37
$GPRMC,133853.000,A,4841.2680,N,01132.3676,E,0.47,323.22,080809,,*04
$GPGGA,133854.000,4841.2678,N,01132.3677,E,1,09,1.1,365.7,M,47.6,M,,0000*59
$GPGSA,A,3,14,26,29,12,09,30,27,02,04,,,,2.0,1.1,1.6*37
$GPRMC,133854.000,A,4841.2678,N,01132.3677,E,0.75,135.67,080809,,*00
$GPGGA,133855.000,4841.2678,N,01132.3678,E,1,09,1.1,365.6,M,47.6,M,,0000*56
$GPGSA,A,3,14,26,29,12,09,30,27,02,04,,,,2.0,1.1,1.6*37
$GPRMC,133855.000,A,4841.2678,N,01132.3678,E,0.12,30.12,080809,,*39
$GPGGA,133856.000,4841.2678,N,01132.3679,E,1,09,1.1,365.4,M,47.6,M,,0000*56
$GPGSA,A,3,14,26,29,12,09,30,27,02,04,,,,2.0,1.1,1.6*37
$GPGSV,3,1,09,12,81,330,25,09,52,135,32,30,50,271,25,26,44,230,31*75
$GPGSV,3,2,09,27,41,135,35,14,39,291,25,04,23,076,28,02,21,112,33*7F
$GPGSV,3,3,09,29,13,206,31*4F
$GPRMC,133856.000,A,4841.2678,N,01132.3679,E,0.60,3.62,080809,,*09
$GPGGA,133857.000,4841.2678,N,01132.3678,E,1,08,1.2,365.4,M,47.6,M,,0000*54
$GPGSA,A,3,14,26,29,12,09,30,27,04,,,,,2.1,1.2,1.7*36
$GPRMC,133857.000,A,4841.2678,N,01132.3678,E,0.13,12.25,080809,,*3E
$GPGGA,133858.000,4841.2678,N,01132.3678,E,1,09,1.1,365.2,M,47.6,M,,0000*5F
$GPGSA,A,3,14,26,29,12,09,30,27,02,04,,,,2.0,1.1,1.6*37
$GPRMC,133858.000,A,4841.2678,N,01132.3678,E,0.10,140.33,080809,,*03
$GPGGA,133859.000,4841.2675,N,01132.3679,E,1,08,1.4,365.1,M,47.6,M,,0000*55
$GPGSA,A,3,14,26,12,09,30,27,02,04,,,,,2.6,1.4,2.2*38
$GPRMC,133859.000,A,4841.2675,N,01132.3679,E,1.65,186.58,080809,,*0A
$GPGGA,133900.000,4841.2674,N,01132.3683,E,1,09,1.1,365.4,M,47.6,M,,0000*5D
$GPGSA,A,3,14,26,29,12,09,30,27,02,04,,,,2.0,1.1,1.6*37
$GPRMC,133900.000,A,4841.2674,N,01132.3683,E,1.05,68.47,080809,,*3A
$GPGGA,133901.000,4841.2677,N,01132.3686,E,1,09,1.1,365.6,M,47.6,M,,0000*58
$GPGSA,A,3,14,26,29,12,09,30,27,02,04,,,,2.0,1.1,1.6*37
$GPGSV,3,1,09,12,81,330,14,09,52,135,19,30,50,271,23,26,44,230,21*79
$GPGSV,3,2,09,27,41,135,25,14,39,291,24,04,23,076,25,02,21,112,19*7A
$GPGSV,3,3,09,29,13,206,21*4E
$GPRMC,133901.000,A,4841.2677,N,01132.3686,E,0.95,15.15,080809,,*38
$GPGGA,133902.000,4841.2678,N,01132.3686,E,1,09,1.1,366.0,M,47.6,M,,0000*51
$GPGSA,A,3,14,26,29,12,09,30,27,02,04,,,,2.0,1.1,1.6*37
$GPRMC,133902.000,A,4841.2678,N,01132.3686,E,0.21,318.22,080809,,*01
$GPGGA,133903.000,4841.2676,N,01132.3686,E,1,09,1.1,365.8,M,47.6,M,,0000*55
$GPGSA,A,3,14,26,29,12,09,30,27,02,04,,,,2.0,1.1,1.6*37
$GPRMC,133903.000,A,4841.2676,N,01132.3686,E,0.74,158.55,080809,,*08
$GPGGA,133904.000,4841.2673,N,01132.3684,E,1,09,1.1,366.0,M,47.6,M,,0000*5E
$GPGSA,A,3,14,26,29,12,09,30,27,02,04,,,,2.0,1.1,1.6*37
$GPRMC,133904.000,A,4841.2673,N,01132.3684,E,0.74,209.21,080809,,*0C
$GPGGA,133905.000,4841.2674,N,01132.3680,E,1,09,1.1,366.9,M,47.6,M,,0000*55
$GPGSA,A,3,14,26,29,12,09,30,27,02,04,,,,2.0,1.1,1.6*37
$GPRMC,133905.000,A,4841.2674,N,01132.3680,E,0.78,311.28,080809,,*03
$GPGGA,133906.000,4841.2676,N,01132.3680,E,1,09,1.1,366.9,M,47.6,M,,0000*54
$GPGSA,A,3,14,26,29,12,09,30,27,02,04,,,,2.0,1.1,1.6*37
$GPGSV,3,1,09,12,81,330,25,09,52,135,26,30,50,271,24,26,44,230,21*70
$GPGSV,3,2,09,27,41,135,24,14,39,291,24,04,23,076,24,02,21,112,18*7B
$GPGSV,3,3,09,29,13,206,20*4F
$GPRMC,133906.000,A,4841.2676,N,01132.3680,E,1.95,19.93,080809,,*3B
$GPGGA,133907.000,4841.2679,N,01132.3681,E,1,09,1.1,367.2,M,47.6,M,,0000*51
$GPGSA,A,3,14,26,29,12,09,30,27,02,04,,,,2.0,1.1,1.6*37
$GPRMC,133907.000,A,4841.2679,N,01132.3681,E,0.80,346.17,080809,,*04
$GPGGA,133908.000,4841.2679,N,01132.3684,E,1,08,1.1,367.0,M,47.6,M,,0000*58
$GPGSA,A,3,14,26,29,09,30,27,02,04,,,,,2.2,1.1,1.9*39
$GPRMC,133908.000,A,4841.2679,N,01132.3684,E,0.11,336.50,080809,,*02
$GPGGA,133909.000,4841.2681,N,01132.3681,E,1,08,1.2,367.0,M,47.6,M,,0000*58
$GPGSA,A,3,14,26,29,12,09,27,02,04,,,,,2.0,1.2,1.6*37
$GPRMC,133909.000,A,4841.2681,N,01132.3681,E,0.58,241.65,080809,,*0B
$GPGGA,133910.000,4841.2683,N,01132.3677,E,1,08,1.2,366.7,M,47.6,M,,0000*5D
$GPGSA,A,3,14,26,29,12,09,27,02,04,,,,,2.0,1.2,1.6*37
$GPRMC,133910.000,A,4841.2683,N,01132.3677,E,0.74,303.47,080809,,*01
$GPGGA,133911.000,4841.2684,N,01132.3675,E,1,08,1.2,366.4,M,47.6,M,,0000*5A
$GPGSA,A,3,14,26,29,12,09,27,02,04,,,,,2.0,1.2,1.6*37
$GPGSV,3,1,09,12,81,330,23,09,52,135,27,30,50,271,14,26,44,230,22*77
$GPGSV,3,2,09,27,41,135,23,14,39,291,18,04,23,076,25,02,21,112,26*7F
$GPGSV,3,3,09,29,13,206,20*4F
$GPRMC,133911.000,A,4841.2684,N,01132.3675,E,0.94,314.20,080809,,*0C
$GPGGA,133912.000,4841.2686,N,01132.3672,E,1,06,1.6,366.4,M,47.6,M,,0000*56
$GPGSA,A,3,14,26,29,30,27,02,,,,,,,3.1,1.6,2.7*3C
$GPRMC,133912.000,A,4841.2686,N,01132.3672,E,1.92,304.78,080809,,*01
$GPGGA,133913.000,4841.2690,N,01132.3674,E,1,07,1.6,366.8,M,47.6,M,,0000*5B
$GPGSA,A,3,14,26,29,12,30,27,02,,,,,,2.7,1.6,2.2*3D
$GPRMC,133913.000,A,4841.2690,N,01132.3674,E,1.40,357.49,080809,,*0A
$GPGGA,133914.000,4841.2693,N,01132.3673,E,1,08,1.5,367.9,M,47.6,M,,0000*54
$GPGSA,A,3,14,26,29,12,09,30,27,02,,,,,2.5,1.5,2.0*37
$GPRMC,133914.000,A,4841.2693,N,01132.3673,E,1.59,283.84,080809,,*08
$GPGGA,133915.000,4841.2691,N,01132.3667,E,1,08,1.5,368.2,M,47.6,M,,0000*56
$GPGSA,A,3,14,26,29,12,09,30,27,02,,,,,2.5,1.5,2.0*37
$GPRMC,133915.000,A,4841.2691,N,01132.3667,E,1.44,230.69,080809,,*09
$GPGGA,133916.000,4841.2685,N,01132.3667,E,1,08,1.5,368.2,M,47.6,M,,0000*50
$GPGSA,A,3,14,26,29,12,09,30,27,02,,,,,2.5,1.5,2.0*37
$GPGSV,3,1,09,12,81,330,17,09,52,135,16,30,50,271,28,26,44,230,28*77
$GPGSV,3,2,09,27,41,135,14,14,39,291,19,04,23,076,09,02,21,112,21*73
$GPGSV,3,3,09,29,13,206,19*45
$GPRMC,133916.000,A,4841.2685,N,01132.3667,E,0.68,188.72,080809,,*0A
$GPGGA,133917.000,4841.2679,N,01132.3671,E,1,08,1.5,369.2,M,47.6,M,,0000*54
$GPGSA,A,3,14,26,29,12,09,30,27,02,,,,,2.5,1.5,2.0*37
$GPRMC,133917.000,A,4841.2679,N,01132.3671,E,0.48,238.01,080809,,*01
$GPGGA,133918.000,4841.2677,N,01132.3671,E,1,08,1.5,369.9,M,47.6,M,,0000*5E
$GPGSA,A,3,14,26,29,12,09,30,27,02,,,,,2.5,1.5,2.0*37
$GPRMC,133918.000,A,4841.2677,N,01132.3671,E,0.48,292.86,080809,,*0F
$GPGGA,133919.000,4841.2676,N,01132.3673,E,1,08,1.5,370.3,M,47.6,M,,0000*5E
$GPGSA,A,3,14,26,29,12,09,30,27,02,,,,,2.5,1.5,2.0*37
$GPRMC,133919.000,A,4841.2676,N,01132.3673,E,0.31,116.75,080809,,*00
$GPGGA,133920.000,4841.2676,N,01132.3673,E,1,08,1.5,370.4,M,47.6,M,,0000*53
$GPGSA,A,3,14,26,29,12,09,30,27,02,,,,,2.5,1.5,2.0*37
$GPRMC,133920.000,A,4841.2676,N,01132.3673,E,0.22,348.82,080809,,*09
$GPGGA,133921.000,4841.2679,N,01132.3673,E,1,08,1.5,370.8,M,47.6,M,,0000*51
$GPGSA,A,3,14,26,29,12,09,30,27,02,,,,,2.5,1.5,2.0*37
$GPGSV,3,1,09,12,81,330,24,09,52,135,17,30,50,271,29,26,44,230,28*77
$GPGSV,3,2,09,27,41,135,14,14,39,291,25,04,23,076,12,02,21,112,22*75
$GPGSV,3,3,09,29,13,206,19*45
$GPRMC,133921.000,A,4841.2679,N,01132.3673,E,0.09,17.56,080809,,*3E
$GPGGA,133922.000,4841.2680,N,01132.3672,E,1,08,1.5,370.3,M,47.6,M,,0000*5E
$GPGSA,A,3,14,26,29,12,09,30,27,02,,,,,2.5,1.5,2.0*37
$GPRMC,133922.000,A,4841.2680,N,01132.3672,E,1.13,286.82,080809,,*03
$GPGGA,133923.000,4841.2684,N,01132.3671,E,1,08,1.5,370.3,M,47.6,M,,0000*58
$GPGSA,A,3,14,26,29,12,09,30,27,02,,,,,2.5,1.5,2.0*37
$GPRMC,133923.000,A,4841.2684,N,01132.3671,E,1.42,341.10,080809,,*00
$GPGGA,133924.000,4841.2688,N,01132.3674,E,1,08,1.5,370.1,M,47.6,M,,0000*54
$GPGSA,A,3,14,26,29,12,09,30,27,02,,,,,2.5,1.5,2.0*37
$GPRMC,133924.000,A,4841.2688,N,01132.3674,E,0.81,3.98,080809,,*05
$GPGGA,133925.000,4841.2684,N,01132.3675,E,1,08,1.5,371.2,M,47.6,M,,0000*5A
$GPGSA,A,3,14,26,29,12,09,30,27,02,,,,,2.5,1.5,2.0*37
$GPRMC,133925.000,A,4841.2684,N,01132.3675,E,0.60,240.63,080809,,*07
$GPGGA,133926.000,4841.2685,N,01132.3674,E,1,07,1.8,371.2,M,47.6,M,,0000*5B
$GPGSA,A,3,14,26,12,09,30,27,02,,,,,,3.0,1.8,2.4*31
$GPGSV,3,1,09,12,81,330,24,09,52,135,19,30,50,271,29,26,44,230,28*79
$GPGSV,3,2,09,27,41,135,12,14,39,291,26,04,23,076,11,02,21,112,23*72
$GPGSV,3,3,09,29,13,206,07*4A
$GPRMC,133926.000,A,4841.2685,N,01132.3674,E,0.63,82.08,080809,,*36
$GPGGA,133927.000,4841.2687,N,01132.3676,E,1,07,1.8,371.2,M,47.6,M,,0000*5A
$GPGSA,A,3,14,26,12,09,30,27,02,,,,,,3.0,1.8,2.4*31
$GPRMC,133927.000,A,4841.2687,N,01132.3676,E,0.88,38.78,080809,,*34
$GPGGA,133928.000,4841.2689,N,01132.3677,E,1,07,1.8,371.0,M,47.6,M,,0000*58
$GPGSA,A,3,14,26,12,09,30,27,02,,,,,,3.0,1.8,2.4*31
$GPRMC,133928.000,A,4841.2689,N,01132.3677,E,0.74,30.88,080809,,*30
$GPGGA,133929.000,4841.2689,N,01132.3680,E,1,07,1.8,371.9,M,47.6,M,,0000*58
$GPGSA,A,3,14,26,12,09,30,27,02,,,,,,3.0,1.8,2.4*31
$GPRMC,133929.000,A,4841.2689,N,01132.3680,E,0.75,349.25,080809,,*02
$GPGGA,133930.000,4841.2688,N,01132.3684,E,1,07,1.8,372.6,M,47.6,M,,0000*59
$GPGSA,A,3,14,26,12,09,30,27,02,,,,,,3.0,1.8,2.4*31
$GPRMC,133930.000,A,4841.2688,N,01132.3684,E,1.15,94.81,080809,,*35
$GPGGA,133931.000,4841.2684,N,01132.3686,E,1,07,1.8,373.3,M,47.6,M,,0000*52
$GPGSA,A,3,14,26,12,09,30,27,02,,,,,,3.0,1.8,2.4*31
$GPGSV,3,1,09,12,81,330,24,09,52,135,20,30,50,271,30,26,44,230,28*7B
$GPGSV,3,2,09,27,41,135,19,14,39,291,26,04,23,076,,02,21,112,23*79
$GPGSV,3,3,09,29,13,206,17*4B
$GPRMC,133931.000,A,4841.2684,N,01132.3686,E,0.98,156.22,080809,,*08
$GPGGA,133932.000,4841.2684,N,01132.3686,E,1,07,1.8,373.7,M,47.6,M,,0000*55
$GPGSA,A,3,14,26,12,09,30,27,02,,,,,,3.0,1.8,2.4*31
$GPRMC,133932.000,A,4841.2684,N,01132.3686,E,0.59,328.22,080809,,*0D
$GPGGA,133933.000,4841.2678,N,01132.3682,E,1,08,1.5,372.6,M,47.6,M,,0000*51
$GPGSA,A,3,14,26,12,09,30,27,29,02,,,,,2.5,1.5,2.0*37
$GPRMC,133933.000,A,4841.2678,N,01132.3682,E,0.68,192.84,080809,,*06
$GPGGA,133934.000,4841.2674,N,01132.3682,E,1,08,1.5,373.1,M,47.6,M,,0000*5C
$GPGSA,A,3,14,26,12,09,30,27,29,02,,,,,2.5,1.5,2.0*37
$GPRMC,133934.000,A,4841.2674,N,01132.3682,E,0.73,226.69,080809,,*08
$GPGGA,133935.000,4841.2669,N,01132.3682,E,1,08,1.5,372.7,M,47.6,M,,0000*56
$GPGSA,A,3,14,26,12,09,30,27,29,02,,,,,2.5,1.5,2.0*37
$GPRMC,133935.000,A,4841.2669,N,01132.3682,E,1.42,185.03,080809,,*00
$GPGGA,133936.000,4841.2666,N,01132.3682,E,1,08,1.5,373.4,M,47.6,M,,0000*58
$GPGSA,A,3,14,26,12,09,30,27,29,02,,,,,2.5,1.5,2.0*37
$GPGSV,3,1,09,12,81,330,25,09,52,135,21,30,50,271,25,26,44,230,24*73
$GPGSV,3,2,09,27,41,135,18,14,39,291,23,04,23,076,13,02,21,112,22*7E
$GPGSV,3,3,09,29,13,206,16*4A
$GPRMC,133936.000,A,4841.2666,N,01132.3682,E,0.39,159.51,080809,,*07
$GPGGA,133937.000,4841.2667,N,01132.3686,E,1,09,1.1,371.5,M,47.6,M,,0000*5A
$GPGSA,A,3,14,26,04,12,09,30,27,29,02,,,,2.0,1.1,1.6*37
$GPRMC,133937.000,A,4841.2667,N,01132.3686,E,1.06,141.99,080809,,*03
$GPGGA,133938.000,4841.2672,N,01132.3689,E,1,09,1.1,369.9,M,47.6,M,,0000*5B
$GPGSA,A,3,14,26,04,12,09,30,27,29,02,,,,2.0,1.1,1.6*37
$GPRMC,133938.000,A,4841.2672,N,01132.3689,E,0.60,24.47,080809,,*37
$GPGGA,133939.000,4841.2677,N,01132.3688,E,1,09,1.1,369.0,M,47.6,M,,0000*57
$GPGSA,A,3,14,26,04,12,09,30,27,29,02,,,,2.0,1.1,1.6*37
$GPRMC,133939.000,A,4841.2677,N,01132.3688,E,0.95,6.80,080809,,*03
$GPGGA,133940.000,4841.2680,N,01132.3687,E,1,09,1.1,368.8,M,47.6,M,,0000*57
