$GPGSV,3,2,09,27,41,135,39,14,39,292,28,04,22,077,34,02,21,113,38*7A
$GPGSV,3,3,09,29,12,206,30*4F
$GPRMC,133701.000,A,4841.2653,N,01132.3658,E,0.17,262.14,080809,,*0A
$GPGGA,133702.000,4841.2656,N,01132.3659,E,1,09,1.1,369.6,M,47.6,M,,0000*58
$GPGSA,A,3,14,26,29,12,09,30,27,02,04,,,,2.0,1.1,1.6*37
$GPRMC,133702.000,A,4841.2656,N,01132.3659,E,0.20,332.80,080809,,*00
$GPGGA,133703.000,4841.2659,N,01132.3661,E,1,09,1.1,369.0,M,47.6,M,,0000*5B
$GPGSA,A,3,14,26,29,12,09,30,27,02,04,,,,2.0,1.1,1.6*37
$GPRMC,133703.000,A,4841.2659,N,01132.3661,E,0.05,344.75,080809,,*09
$GPGGA,133704.000,4841.2660,N,01132.3662,E,1,09,1.1,368.6,M,47.6,M,,0000*52
$GPGSA,A,3,14,26,29,12,09,30,27,02,04,,,,2.0,1.1,1.6*37
$GPRMC,133704.000,A,4841.2660,N,01132.3662,E,0.11,124.96,080809,,*0B
$GPGGA,133705.000,4841.2661,N,01132.3663,E,1,09,1.1,368.3,M,47.6,M,,0000*56
$GPGSA,A,3,14,26,29,12,09,30,27,02,04,,,,2.0,1.1,1.6*37
$GPRMC,133705.000,A,4841.2661,N,01132.3663,E,0.16,281.19,080809,,*06
$GPGGA,133706.000,4841.2663,N,01132.3664,E,1,09,1.1,368.0,M,47.6,M,,0000*53
$GPGSA,A,3,14,26,29,12,09,30,27,02,04,,,,2.0,1.1,1.6*37
$GPGSV,3,1,09,12,81,324,36,09,53,135,41,30,50,270,33,26,44,231,34*75
$GPGSV,3,2,09,27,41,135,38,14,39,292,33,04,22,077,38,02,21,113,38*7D
$GPGSV,3,3,09,29,12,206,31*4E
$GPRMC,133706.000,A,4841.2663,N,01132.3664,E,0.03,96.83,080809,,*33
$GPGGA,133707.000,4841.2664,N,01132.3665,E,1,09,1.1,367.8,M,47.6,M,,0000*53
$GPGSA,A,3,14,26,29,12,09,30,27,02,04,,,,2.0,1.1,1.6*37
$GPRMC,133707.000,A,4841.2664,N,01132.3665,E,0.06,83.96,080809,,*31
$GPGGA,133708.000,4841.2664,N,01132.3665,E,1,09,1.1,367.6,M,47.6,M,,0000*52
$GPGSA,A,3,14,26,29,12,09,30,27,02,04,,,,2.0,1.1,1.6*37
$GPRMC,133708.000,A,4841.2664,N,01132.3665,E,0.08,183.06,080809,,*08
$GPGGA,133709.000,4841.2665,N,01132.3666,E,1,09,1.1,367.4,M,47.6,M,,0000*53
$GPGSA,A,3,14,26,29,12,09,30,27,02,04,,,,2.0,1.1,1.6*37
$GPRMC,133709.000,A,4841.2665,N,01132.3666,E,0.10,184.45,080809,,*02
$GPGGA,133710.000,4841.2665,N,01132.3666,E,1,09,1.1,367.0,M,47.6,M,,0000*5F
$GPGSA,A,3,14,26,29,12,09,30,27,02,04,,,,2.0,1.1,1.6*37
$GPRMC,133710.000,A,4841.2665,N,01132.3666,E,0.36,207.78,080809,,*08
$GPGGA,133711.000,4841.2665,N,01132.3666,E,1,09,1.1,366.9,M,47.6,M,,0000*56
$GPGSA,A,3,14,26,29,12,09,30,27,02,04,,,,2.0,1.1,1.6*37
$GPGSV,3,1,09,12,81,324,36,09,53,135,42,30,50,270,34,26,44,231,33*76
$GPGSV,3,2,09,27,41,135,39,14,39,292,34,04,22,077,37,02,21,113,38*74
$GPGSV,3,3,09,29,12,206,25*4B
$GPRMC,133711.000,A,4841.2665,N,01132.3666,E,0.12,194.78,080809,,*06
$GPGGA,133712.000,4841.2665,N,01132.3666,E,1,09,1.1,366.6,M,47.6,M,,0000*5A
$GPGSA,A,3,14,26,29,12,09,30,27,02,04,,,,2.0,1.1,1.6*37
$GPRMC,133712.000,A,4841.2665,N,01132.3666,E,0.33,206.46,080809,,*03
$GPGGA,133713.000,4841.2666,N,01132.3667,E,1,09,1.1,366.5,M,47.6,M,,0000*5A
$GPGSA,A,3,14,26,29,12,09,30,27,02,04,,,,2.0,1.1,1.6*37
$GPRMC,133713.000,A,4841.2666,N,01132.3667,E,0.15,18.56,080809,,*38
$GPGGA,133714.000,4841.2668,N,01132.3666,E,1,09,1.1,366.3,M,47.6,M,,0000*54
$GPGSA,A,3,14,26,29,12,09,30,27,02,04,,,,2.0,1.1,1.6*37
$GPRMC,133714.000,A,4841.2668,N,01132.3666,E,0.76,321.19,080809,,*07
$GPGGA,133715.000,4841.2669,N,01132.3665,E,1,09,1.1,365.9,M,47.6,M,,0000*5E
$GPGSA,A,3,14,26,29,12,09,30,27,02,04,,,,2.0,1.1,1.6*37
$GPRMC,133715.000,A,4841.2669,N,01132.3665,E,0.24,199.44,080809,,*0A
$GPGGA,133716.000,4841.2668,N,01132.3665,E,1,09,1.1,365.6,M,47.6,M,,0000*53
$GPGSA,A,3,14,26,29,12,09,30,27,02,04,,,,2.0,1.1,1.6*37
$GPGSV,3,1,09,12,81,325,37,09,53,135,30,30,50,270,35,26,44,231,24*74
$GPGSV,3,2,09,27,41,135,28,14,39,292,35,04,22,077,30,02,21,113,29*72
$GPGSV,3,3,09,29,12,206,23*4D
$GPRMC,133716.000,A,4841.2668,N,01132.3665,E,0.39,208.06,080809,,*09
$GPGGA,133717.000,4841.2668,N,01132.3665,E,1,08,1.4,365.4,M,47.6,M,,0000*54
$GPGSA,A,3,14,26,12,09,30,27,02,04,,,,,2.6,1.4,2.2*38
$GPRMC,133717.000,A,4841.2668,N,01132.3665,E,0.19,214.44,080809,,*01
$GPGGA,133718.000,4841.2668,N,01132.3664,E,1,08,1.4,365.3,M,47.6,M,,0000*5D
$GPGSA,A,3,14,26,12,09,30,27,02,04,,,,,2.6,1.4,2.2*38
$GPRMC,133718.000,A,4841.2668,N,01132.3664,E,0.51,213.93,080809,,*0E
$GPGGA,133719.000,4841.2667,N,01132.3664,E,1,08,1.4,365.2,M,47.6,M,,0000*52
$GPGSA,A,3,14,26,12,09,30,27,02,04,,,,,2.6,1.4,2.2*38
$GPRMC,133719.000,A,4841.2667,N,01132.3664,E,0.15,214.81,080809,,*04
$GPGGA,133720.000,4841.2667,N,01132.3663,E,1,08,1.4,365.1,M,47.6,M,,0000*5C
$GPGSA,A,3,14,26,12,09,30,27,02,04,,,,,2.6,1.4,2.2*38
$GPRMC,133720.000,A,4841.2667,N,01132.3663,E,0.12,211.56,080809,,*01
$GPGGA,133721.000,4841.2668,N,01132.3663,E,1,09,1.1,364.8,M,47.6,M,,0000*5E
$GPGSA,A,3,14,26,29,12,09,30,27,02,04,,,,2.0,1.1,1.6*37
$GPGSV,3,1,09,12,81,325,38,09,53,135,30,30,50,270,36,26,44,231,26*7A
$GPGSV,3,2,09,27,41,135,29,14,39,292,36,04,22,077,20,02,21,113,29*71
$GPGSV,3,3,09,29,12,206,12*4F
$GPRMC,133721.000,A,4841.2668,N,01132.3663,E,0.18,219.18,080809,,*07
$GPGGA,133722.000,4841.2668,N,01132.3663,E,1,09,1.1,364.6,M,47.6,M,,0000*53
$GPGSA,A,3,14,26,29,12,09,30,27,02,04,,,,2.0,1.1,1.6*37
$GPRMC,133722.000,A,4841.2668,N,01132.3663,E,0.07,221.20,080809,,*0A
$GPGGA,133723.000,4841.2668,N,01132.3663,E,1,09,1.1,364.6,M,47.6,M,,0000*52
$GPGSA,A,3,14,26,29,12,09,30,27,02,04,,,,2.0,1.1,1.6*37
$GPRMC,133723.000,A,4841.2668,N,01132.3663,E,0.02,202.60,080809,,*0B
$GPGGA,133724.000,4841.2668,N,01132.3663,E,1,09,1.1,364.3,M,47.6,M,,0000*50
$GPGSA,A,3,14,26,29,12,09,30,27,02,04,,,,2.0,1.1,1.6*37
$GPRMC,133724.000,A,4841.2668,N,01132.3663,E,0.06,222.63,080809,,*09
$GPGGA,133725.000,4841.2667,N,01132.3662,E,1,09,1.1,364.2,M,47.6,M,,0000*5E
$GPGSA,A,3,14,26,29,12,09,30,27,02,04,,,,2.0,1.1,1.6*37
$GPRMC,133725.000,A,4841.2667,N,01132.3662,E,0.30,198.58,080809,,*09
$GPGGA,133726.000,4841.2665,N,01132.3661,E,1,09,1.1,364.4,M,47.6,M,,0000*5A
$GPGSA,A,3,14,26,29,12,09,30,27,02,04,,,,2.0,1.1,1.6*37
$GPGSV,3,1,09,12,81,325,38,09,53,135,31,30,50,270,36,26,44,231,28*75
$GPGSV,3,2,09,27,41,135,30,14,39,292,38,04,22,077,20,02,21,113,28*76
$GPGSV,3,3,09,29,12,206,14*49
$GPRMC,133726.000,A,4841.2665,N,01132.3661,E,0.46,219.51,080809,,*09
$GPGGA,133727.000,4841.2666,N,01132.3661,E,1,09,1.1,364.5,M,47.6,M,,0000*59
$GPGSA,A,3,14,26,29,12,09,30,27,02,04,,,,2.0,1.1,1.6*37
$GPRMC,133727.000,A,4841.2666,N,01132.3661,E,0.26,17.46,080809,,*37
$GPGGA,133728.000,4841.2667,N,01132.3662,E,1,09,1.1,364.6,M,47.6,M,,0000*57
$GPGSA,A,3,14,26,29,12,09,30,27,02,04,,,,2.0,1.1,1.6*37
$GPRMC,133728.000,A,4841.2667,N,01132.3662,E,0.21,22.63,080809,,*3C
$GPGGA,133729.000,4841.2668,N,01132.3662,E,1,09,1.1,364.8,M,47.6,M,,0000*57
$GPGSA,A,3,14,26,29,12,09,30,27,02,04,,,,2.0,1.1,1.6*37
$GPRMC,133729.000,A,4841.2668,N,01132.3662,E,0.35,16.26,080809,,*31
$GPGGA,133730.000,4841.2668,N,01132.3663,E,1,09,1.1,365.0,M,47.6,M,,0000*57
$GPGSA,A,3,14,26,29,12,09,30,27,02,04,,,,2.0,1.1,1.6*37
$GPRMC,133730.000,A,4841.2668,N,01132.3663,E,0.03,295.28,080809,,*0A
$GPGGA,133731.000,4841.2670,N,01132.3664,E,1,09,1.1,365.1,M,47.6,M,,0000*59
$GPGSA,A,3,14,26,29,12,09,30,27,02,04,,,,2.0,1.1,1.6*37
$GPGSV,3,1,09,12,81,325,38,09,53,135,32,30,50,270,36,26,44,231,29*77
$GPGSV,3,2,09,27,41,135,31,14,39,292,39,04,22,077,20,02,21,113,28*76
$GPGSV,3,3,09,29,12,206,14*49
$GPRMC,133731.000,A,4841.2670,N,01132.3664,E,0.01,162.23,080809,,*07
$GPGGA,133732.000,4841.2671,N,01132.3665,E,1,09,1.1,365.4,M,47.6,M,,0000*5F
$GPGSA,A,3,14,26,29,12,09,30,27,02,04,,,,2.0,1.1,1.6*37
$GPRMC,133732.000,A,4841.2671,N,01132.3665,E,0.46,25.59,080809,,*38
$GPGGA,133733.000,4841.2671,N,01132.3665,E,1,09,1.1,365.7,M,47.6,M,,0000*5D
$GPGSA,A,3,14,26,29,12,09,30,27,02,04,,,,2.0,1.1,1.6*37
$GPRMC,133733.000,A,4841.2671,N,01132.3665,E,0.35,220.05,080809,,*03
$GPGGA,133734.000,4841.2671,N,01132.3664,E,1,09,1.1,366.1,M,47.6,M,,0000*5E
$GPGSA,A,3,14,26,29,12,09,30,27,02,04,,,,2.0,1.1,1.6*37
$GPRMC,133734.000,A,4841.2671,N,01132.3664,E,0.32,248.48,080809,,*05
$GPGGA,133735.000,4841.2671,N,01132.3663,E,1,09,1.1,366.7,M,47.6,M,,0000*5E
$GPGSA,A,3,14,26,29,12,09,30,27,02,04,,,,2.0,1.1,1.6*37
$GPRMC,133735.000,A,4841.2671,N,01132.3663,E,0.14,15.17,080809,,*37
$GPGGA,133736.000,4841.2671,N,01132.3663,E,1,09,1.1,367.2,M,47.6,M,,0000*59
$GPGSA,A,3,14,26,29,12,09,30,27,02,04,,,,2.0,1.1,1.6*37
$GPGSV,3,1,09,12,81,326,38,09,53,135,32,30,50,270,37,26,44,231,30*7D
$GPGSV,3,2,09,27,41,135,31,14,39,292,39,04,22,077,21,02,21,113,27*78
$GPGSV,3,3,09,29,12,206,15*48
$GPRMC,133736.000,A,4841.2671,N,01132.3663,E,0.16,190.35,080809,,*0A
$GPGGA,133737.000,4841.2669,N,01132.3662,E,1,09,1.1,367.5,M,47.6,M,,0000*57
$GPGSA,A,3,14,26,29,12,09,30,27,02,04,,,,2.0,1.1,1.6*37
$GPRMC,133737.000,A,4841.2669,N,01132.3662,E,0.33,193.87,080809,,*0E
$GPGGA,133738.000,4841.2670,N,01132.3663,E,1,09,1.1,367.5,M,47.6,M,,0000*51
$GPGSA,A,3,14,26,29,12,09,30,27,02,04,,,,2.0,1.1,1.6*37
$GPRMC,133738.000,A,4841.2670,N,01132.3663,E,0.33,65.62,080809,,*3B
$GPGGA,133739.000,4841.2670,N,01132.3664,E,1,09,1.1,367.8,M,47.6,M,,0000*5A
$GPGSA,A,3,14,26,29,12,09,30,27,02,04,,,,2.0,1.1,1.6*37
$GPRMC,133739.000,A,4841.2670,N,01132.3664,E,0.10,42.42,080809,,*3B
$GPGGA,133740.000,4841.2668,N,01132.3661,E,1,08,1.4,368.4,M,47.6,M,,0000*5F
$GPGSA,A,3,14,26,12,09,30,27,02,04,,,,,2.6,1.4,2.2*38
$GPRMC,133740.000,A,4841.2668,N,01132.3661,E,0.72,228.30,080809,,*06
$GPGGA,133741.000,4841.2666,N,01132.3659,E,1,09,1.1,368.9,M,47.6,M,,0000*52
$GPGSA,A,3,14,26,29,12,09,30,27,02,04,,,,2.0,1.1,1.6*37
$GPGSV,3,1,09,12,81,326,38,09,53,135,32,30,50,270,38,26,44,231,30*72
$GPGSV,3,2,09,27,41,135,32,14,39,292,39,04,22,077,21,02,21,113,26*7A
$GPGSV,3,3,09,29,12,206,14*49
$GPRMC,133741.000,A,4841.2666,N,01132.3659,E,0.54,218.41,080809,,*03
$GPGGA,133742.000,4841.2665,N,01132.3658,E,1,09,1.1,369.0,M,47.6,M,,0000*5B
$GPGSA,A,3,14,26,29,12,09,30,27,02,04,,,,2.0,1.1,1.6*37
$GPRMC,133742.000,A,4841.2665,N,01132.3658,E,0.53,219.98,080809,,*00
$GPGGA,133743.000,4841.2665,N,01132.3659,E,1,09,1.1,368.8,M,47.6,M,,0000*52
$GPGSA,A,3,14,26,29,12,09,30,27,02,04,,,,2.0,1.1,1.6*37
$GPRMC,133743.000,A,4841.2665,N,01132.3659,E,0.42,44.51,080809,,*3F
$GPGGA,133744.000,4841.2665,N,01132.3659,E,1,08,1.5,369.0,M,47.6,M,,0000*59
$GPGSA,A,3,14,26,29,12,09,30,27,02,,,,,2.5,1.5,2.0*37
$GPRMC,133744.000,A,4841.2665,N,01132.3659,E,0.13,246.47,080809,,*0B
$GPGGA,133745.000,4841.2665,N,01132.3659,E,1,09,1.1,369.2,M,47.6,M,,0000*5F
$GPGSA,A,3,14,26,29,12,09,30,27,02,04,,,,2.0,1.1,1.6*37
$GPRMC,133745.000,A,4841.2665,N,01132.3659,E,0.41,87.04,080809,,*35
$GPGGA,133746.000,4841.2665,N,01132.3662,E,1,09,1.1,369.2,M,47.6,M,,0000*54
$GPGSA,A,3,14,26,29,12,09,30,27,02,04,,,,2.0,1.1,1.6*37
$GPGSV,3,1,09,12,81,327,38,09,53,135,41,30,50,271,38,26,44,231,34*72
$GPGSV,3,2,09,27,41,135,36,14,39,292,39,04,23,077,33,02,21,113,31*7A
$GPGSV,3,3,09,29,12,206,23*4D
$GPRMC,133746.000,A,4841.2665,N,01132.3662,E,0.78,105.29,080809,,*00
$GPGGA,133747.000,4841.2665,N,01132.3665,E,1,09,1.1,369.1,M,47.6,M,,0000*51
$GPGSA,A,3,14,26,29,12,09,30,27,02,04,,,,2.0,1.1,1.6*37
$GPRMC,133747.000,A,4841.2665,N,01132.3665,E,0.15,124.80,080809,,*0D
$GPGGA,133748.000,4841.2666,N,01132.3666,E,1,09,1.1,368.8,M,47.6,M,,0000*56
$GPGSA,A,3,14,26,29,12,09,30,27,02,04,,,,2.0,1.1,1.6*37
$GPRMC,133748.000,A,4841.2666,N,01132.3666,E,0.03,282.35,080809,,*04
$GPGGA,133749.000,4841.2667,N,01132.3667,E,1,09,1.1,368.6,M,47.6,M,,0000*59
$GPGSA,A,3,14,26,29,12,09,30,27,02,04,,,,2.0,1.1,1.6*37
$GPRMC,133749.000,A,4841.2667,N,01132.3667,E,0.05,50.42,080809,,*3E
$GPGGA,133750.000,4841.2667,N,01132.3667,E,1,09,1.1,368.3,M,47.6,M,,0000*54
$GPGSA,A,3,14,26,29,12,09,30,27,02,04,,,,2.0,1.1,1.6*37
$GPRMC,133750.000,A,4841.2667,N,01132.3667,E,0.06,181.94,080809,,*03
$GPGGA,133751.000,4841.2667,N,01132.3668,E,1,09,1.1,368.1,M,47.6,M,,0000*58
$GPGSA,A,3,14,26,29,12,09,30,27,02,04,,,,2.0,1.1,1.6*37
$GPGSV,3,1,09,12,81,327,37,09,53,135,42,30,50,271,38,26,44,231,31*7B
$GPGSV,3,2,09,27,41,135,41,14,39,292,38,04,23,077,36,02,21,113,38*77
$GPGSV,3,3,09,29,12,206,24*4A
$GPRMC,133751.000,A,4841.2667,N,01132.3668,E,0.04,91.57,080809,,*30
$GPGGA,133752.000,4841.2667,N,01132.3668,E,1,09,1.1,367.9,M,47.6,M,,0000*5C
$GPGSA,A,3,14,26,29,12,09,30,27,02,04,,,,2.0,1.1,1.6*37
$GPRMC,133752.000,A,4841.2667,N,01132.3668,E,0.04,132.28,080809,,*03
$GPGGA,133753.000,4841.2667,N,01132.3668,E,1,09,1.1,367.7,M,47.6,M,,0000*53
$GPGSA,A,3,14,26,29,12,09,30,27,02,04,,,,2.0,1.1,1.6*37
$GPRMC,133753.000,A,4841.2667,N,01132.3668,E,0.04,153.93,080809,,*05
$GPGGA,133754.000,4841.2667,N,01132.3669,E,1,09,1.1,367.6,M,47.6,M,,0000*54
$GPGSA,A,3,14,26,29,12,09,30,27,02,04,,,,2.0,1.1,1.6*37
$GPRMC,133754.000,A,4841.2667,N,01132.3669,E,0.05,132.42,080809,,*09
$GPGGA,133755.000,4841.2667,N,01132.3669,E,1,09,1.1,367.5,M,47.6,M,,0000*56
$GPGSA,A,3,14,26,29,12,09,30,27,02,04,,,,2.0,1.1,1.6*37
$GPRMC,133755.000,A,4841.2667,N,01132.3669,E,0.04,119.62,080809,,*02
$GPGGA,133756.000,4841.2667,N,01132.3669,E,1,09,1.1,367.3,M,47.6,M,,0000*53
$GPGSA,A,3,14,26,29,12,09,30,27,02,04,,,,2.0,1.1,1.6*37
$GPGSV,3,1,09,12,81,327,37,09,53,135,42,30,50,271,38,26,44,231,31*7B
$GPGSV,3,2,09,27,41,135,41,14,39,292,38,04,23,077,37,02,21,113,38*76
$GPGSV,3,3,09,29,12,206,25*4B
$GPRMC,133756.000,A,4841.2667,N,01132.3669,E,0.08,168.04,080809,,*0B
$GPGGA,133757.000,4841.2667,N,01132.3669,E,1,09,1.1,367.2,M,47.6,M,,0000*53
$GPGSA,A,3,14,26,29,12,09,30,27,02,04,,,,2.0,1.1,1.6*37
$GPRMC,133757.000,A,4841.2667,N,01132.3669,E,0.04,126.87,080809,,*07
$GPGGA,133758.000,4841.2666,N,01132.3669,E,1,09,1.1,367.1,M,47.6,M,,0000*5E
$GPGSA,A,3,14,26,29,12,09,30,27,02,04,,,,2.0,1.1,1.6*37
$GPRMC,133758.000,A,4841.2666,N,01132.3669,E,0.04,150.88,080809,,*07
$GPGGA,133759.000,4841.2667,N,01132.3670,E,1,09,1.1,367.0,M,47.6,M,,0000*57
$GPGSA,A,3,14,26,29,12,09,30,27,02,04,,,,2.0,1.1,1.6*37
$GPRMC,133759.000,A,4841.2667,N,01132.3670,E,0.07,69.19,080809,,*3F
$GPGGA,133800.000,4841.2667,N,01132.3670,E,1,09,1.1,367.1,M,47.6,M,,0000*55
$GPGSA,A,3,14,26,29,12,09,30,27,02,04,,,,2.0,1.1,1.6*37
$GPRMC,133800.000,A,4841.2667,N,01132.3670,E,0.11,49.80,080809,,*39
$GPGGA,133801.000,4841.2667,N,01132.3670,E,1,09,1.1,367.0,M,47.6,M,,0000*55
$GPGSA,A,3,14,26,29,12,09,30,27,02,04,,,,2.0,1.1,1.6*37
$GPGSV,3,1,09,12,81,327,36,09,53,135,42,30,50,271,38,26,44,231,31*7A
$GPGSV,3,2,09,27,41,135,41,14,39,292,37,04,23,077,38,02,21,113,38*76
$GPGSV,3,3,09,29,12,206,24*4A
$GPRMC,133801.000,A,4841.2667,N,01132.3670,E,0.09,192.31,080809,,*0C
$GPGGA,133802.000,4841.2666,N,01132.3670,E,1,09,1.1,366.7,M,47.6,M,,0000*51
$GPGSA,A,3,14,26,29,12,09,30,27,02,04,,,,2.0,1.1,1.6*37
$GPRMC,133802.000,A,4841.2666,N,01132.3670,E,0.31,205.73,080809,,*0E
$GPGGA,133803.000,4841.2666,N,01132.3669,E,1,09,1.1,366.6,M,47.6,M,,0000*59
$GPGSA,A,3,14,26,29,12,09,30,27,02,04,,,,2.0,1.1,1.6*37
$GPRMC,133803.000,A,4841.2666,N,01132.3669,E,0.04,113.52,080809,,*06
$GPGGA,133804.000,4841.2666,N,01132.3670,E,1,09,1.1,366.5,M,47.6,M,,0000*55
$GPGSA,A,3,14,26,29,12,09,30,27,02,04,,,,2.0,1.1,1.6*37
$GPRMC,133804.000,A,4841.2666,N,01132.3670,E,0.13,192.64,080809,,*03
$GPGGA,133805.000,4841.2666,N,01132.3669,E,1,09,1.1,366.5,M,47.6,M,,0000*5C
$GPGSA,A,3,14,26,29,12,09,30,27,02,04,,,,2.0,1.1,1.6*37
$GPRMC,133805.000,A,4841.2666,N,01132.3669,E,0.17,203.20,080809,,*05
$GPGGA,133806.000,4841.2666,N,01132.3669,E,1,09,1.1,366.4,M,47.6,M,,0000*5E
$GPGSA,A,3,14,26,29,12,09,30,27,02,04,,,,2.0,1.1,1.6*37
$GPGSV,3,1,09,12,81,327,36,09,53,135,42,30,50,271,38,26,44,231,31*7A
$GPGSV,3,2,09,27,41,135,41,14,39,292,37,04,23,077,38,02,21,113,38*76
$GPGSV,3,3,09,29,12,206,24*4A
$GPRMC,133806.000,A,4841.2666,N,01132.3669,E,0.04,155.79,080809,,*08
$GPGGA,133807.000,4841.2665,N,01132.3669,E,1,09,1.1,366.3,M,47.6,M,,0000*5B
$GPGSA,A,3,14,26,29,12,09,30,27,02,04,,,,2.0,1.1,1.6*37
$GPRMC,133807.000,A,4841.2665,N,01132.3669,E,0.13,194.84,080809,,*03
$GPGGA,133808.000,4841.2666,N,01132.3670,E,1,09,1.1,366.3,M,47.6,M,,0000*5F
$GPGSA,A,3,14,26,29,12,09,30,27,02,04,,,,2.0,1.1,1.6*37
$GPRMC,133808.000,A,4841.2666,N,01132.3670,E,0.18,51.34,080809,,*3F
$GPGGA,133809.000,4841.2665,N,01132.3669,E,1,09,1.1,366.1,M,47.6,M,,0000*57
$GPGSA,A,3,14,26,29,12,09,30,27,02,04,,,,2.0,1.1,1.6*37
$GPRMC,133809.000,A,4841.2665,N,01132.3669,E,0.33,211.38,080809,,*06
$GPGGA,133810.000,4841.2665,N,01132.3669,E,1,09,1.1,366.0,M,47.6,M,,0000*5E
$GPGSA,A,3,14,26,29,12,09,30,27,02,04,,,,2.0,1.1,1.6*37
$GPRMC,133810.000,A,4841.2665,N,01132.3669,E,0.13,205.59,080809,,*0E
$GPGGA,133811.000,4841.2666,N,01132.3670,E,1,09,1.1,366.1,M,47.6,M,,0000*55
$GPGSA,A,3,14,26,29,12,09,30,27,02,04,,,,2.0,1.1,1.6*37
$GPGSV,3,1,09,12,81,327,36,09,53,135,42,30,50,271,38,26,44,231,32*79
$GPGSV,3,2,09,27,41,135,40,14,39,292,36,04,23,077,37,02,21,113,37*76
$GPGSV,3,3,09,29,12,206,24*4A
$GPRMC,133811.000,A,4841.2666,N,01132.3670,E,0.03,136.87,080809,,*05
$GPGGA,133812.000,4841.2666,N,01132.3670,E,1,09,1.1,366.1,M,47.6,M,,0000*56
$GPGSA,A,3,14,26,29,12,09,30,27,02,04,,,,2.0,1.1,1.6*37
$GPRMC,133812.000,A,4841.2666,N,01132.3670,E,0.04,127.54,080809,,*0F
$GPGGA,133813.000,4841.2666,N,01132.3670,E,1,09,1.1,366.1,M,47.6,M,,0000*57
$GPGSA,A,3,14,26,29,12,09,30,27,02,04,,,,2.0,1.1,1.6*37
$GPRMC,133813.000,A,4841.2666,N,01132.3670,E,0.04,159.02,080809,,*04
$GPGGA,133814.000,4841.2666,N,01132.3670,E,1,09,1.1,366.1,M,47.6,M,,0000*50
$GPGSA,A,3,14,26,29,12,09,30,27,02,04,,,,2.0,1.1,1.6*37
$GPRMC,133814.000,A,4841.2666,N,01132.3670,E,0.05,142.79,080809,,*04
$GPGGA,133815.000,4841.2666,N,01132.3670,E,1,09,1.1,366.1,M,47.6,M,,0000*51
$GPGSA,A,3,14,26,29,12,09,30,27,02,04,,,,2.0,1.1,1.6*37
$GPRMC,133815.000,A,4841.2666,N,01132.3670,E,0.04,99.49,080809,,*30
$GPGGA,133816.000,4841.2666,N,01132.3670,E,1,09,1.1,366.1,M,47.6,M,,0000*52
$GPGSA,A,3,14,26,29,12,09,30,27,02,04,,,,2.0,1.1,1.6*37
$GPGSV,3,1,09,12,81,328,35,09,52,135,42,30,50,271,37,26,44,231,29*71
$GPGSV,3,2,09,27,41,135,40,14,39,292,36,04,23,076,37,02,21,112,37*76
$GPGSV,3,3,09,29,12,206,25*4B
$GPRMC,133816.000,A,4841.2666,N,01132.3670,E,0.03,105.48,080809,,*01
$GPGGA,133817.000,4841.2666,N,01132.3671,E,1,09,1.1,366.1,M,47.6,M,,0000*52
$GPGSA,A,3,14,26,29,12,09,30,27,02,04,,,,2.0,1.1,1.6*37
$GPRMC,133817.000,A,4841.2666,N,01132.3671,E,0.03,107.92,080809,,*04
$GPGGA,133818.000,4841.2666,N,01132.3671,E,1,09,1.1,366.1,M,47.6,M,,0000*5D
$GPGSA,A,3,14,26,29,12,09,30,27,02,04,,,,2.0,1.1,1.6*37
$GPRMC,133818.000,A,4841.2666,N,01132.3671,E,0.07,197.66,080809,,*0D
$GPGGA,133819.000,4841.2666,N,01132.3671,E,1,09,1.1,366.1,M,47.6,M,,0000*5C
$GPGSA,A,3,14,26,29,12,09,30,27,02,04,,,,2.0,1.1,1.6*37
$GPRMC,133819.000,A,4841.2666,N,01132.3671,E,0.04,147.76,080809,,*03
$GPGGA,133820.000,4841.2666,N,01132.3671,E,1,09,1.1,366.1,M,47.6,M,,0000*56
$GPGSA,A,3,14,26,29,12,09,30,27,02,04,,,,2.0,1.1,1.6*37
$GPRMC,133820.000,A,4841.2666,N,01132.3671,E,0.05,70.75,080809,,*3E
$GPGGA,133821.000,4841.2667,N,01132.3671,E,1,09,1.1,366.1,M,47.6,M,,0000*56
$GPGSA,A,3,14,26,29,12,09,30,27,02,04,,,,2.0,1.1,1.6*37
$GPGSV,3,1,09,12,81,328,35,09,52,135,42,30,50,271,37,26,44,231,29*71
$GPGSV,3,2,09,27,41,135,41,14,39,292,36,04,23,076,37,02,21,112,37*77
$GPGSV,3,3,09,29,12,206,25*4B
$GPRMC,133821.000,A,4841.2667,N,01132.3671,E,0.06,159.72,080809,,*00
$GPGGA,133822.000,4841.2667,N,01132.3671,E,1,09,1.1,366.0,M,47.6,M,,0000*54
$GPGSA,A,3,14,26,29,12,09,30,27,02,04,,,,2.0,1.1,1.6*37
$GPRMC,133822.000,A,4841.2667,N,01132.3671,E,0.02,112.61,080809,,*0A
$GPGGA,133823.000,4841.2667,N,01132.3671,E,1,09,1.1,366.0,M,47.6,M,,0000*55
$GPGSA,A,3,14,26,29,12,09,30,27,02,04,,,,2.0,1.1,1.6*37
$GPRMC,133823.000,A,4841.2667,N,01132.3671,E,0.05,115.39,080809,,*06
$GPGGA,133824.000,4841.2667,N,01132.3671,E,1,09,1.1,366.0,M,47.6,M,,0000*52
$GPGSA,A,3,14,26,29,12,09,30,27,02,04,,,,2.0,1.1,1.6*37
$GPRMC,133824.000,A,4841.2667,N,01132.3671,E,0.05,146.62,080809,,*09
$GPGGA,133825.000,4841.2667,N,01132.3671,E,1,09,1.1,366.0,M,47.6,M,,0000*53
$GPGSA,A,3,14,26,29,12,09,30,27,02,04,,,,2.0,1.1,1.6*37
$GPRMC,133825.000,A,4841.2667,N,01132.3671,E,0.04,141.33,080809,,*0A
$GPGGA,133826.000,4841.2667,N,01132.3672,E,1,09,1.1,366.0,M,47.6,M,,0000*53
$GPGSA,A,3,14,26,29,12,09,30,27,02,04,,,,2.0,1.1,1.6*37
$GPGSV,3,1,09,12,81,329,36,09,52,135,42,30,50,271,38,26,44,231,30*74
$GPGSV,3,2,09,27,41,135,41,14,39,292,36,04,23,076,38,02,21,112,37*78
$GPGSV,3,3,09,29,13,206,26*49
$GPRMC,133826.000,A,4841.2667,N,01132.3672,E,0.04,130.88,080809,,*0C
$GPGGA,133827.000,4841.2667,N,01132.3672,E,1,09,1.1,366.0,M,47.6,M,,0000*52
$GPGSA,A,3,14,26,29,12,09,30,27,02,04,,,,2.0,1.1,1.6*37
$GPRMC,133827.000,A,4841.2667,N,01132.3672,E,0.05,119.19,080809,,*0F
$GPGGA,133828.000,4841.2667,N,01132.3672,E,1,09,1.1,366.0,M,47.6,M,,0000*5D
$GPGSA,A,3,14,26,29,12,09,30,27,02,04,,,,2.0,1.1,1.6*37
$GPRMC,133828.000,A,4841.2667,N,01132.3672,E,0.04,146.86,080809,,*0D
$GPGGA,133829.000,4841.2667,N,01132.3672,E,1,09,1.1,366.0,M,47.6,M,,0000*5C
$GPGSA,A,3,14,26,29,12,09,30,27,02,04,,,,2.0,1.1,1.6*37
$GPRMC,133829.000,A,4841.2667,N,01132.3672,E,0.05,128.24,080809,,*0D
$GPGGA,133830.000,4841.2667,N,01132.3672,E,1,09,1.1,366.0,M,47.6,M,,0000*54
$GPGSA,A,3,14,26,29,12,09,30,27,02,04,,,,2.0,1.1,1.6*37
$GPRMC,133830.000,A,4841.2667,N,01132.3672,E,0.04,121.57,080809,,*09
$GPGGA,133831.000,4841.2667,N,01132.3672,E,1,09,1.1,366.0,M,47.6,M,,0000*55
$GPGSA,A,3,14,26,29,12,09,30,27,02,04,,,,2.0,1.1,1.6*37
$GPGSV,3,1,09,12,81,329,36,09,52,135,42,30,50,271,38,26,44,231,30*74
$GPGSV,3,2,09,27,41,135,41,14,39,292,36,04,23,076,38,02,21,112,37*78
$GPGSV,3,3,09,29,13,206,27*48
$GPRMC,133831.000,A,4841.2667,N,01132.3672,E,0.03,124.17,080809,,*0E
$GPGGA,133832.000,4841.2667,N,01132.3672,E,1,09,1.1,366.0,M,47.6,M,,0000*56
$GPGSA,A,3,14,26,29,12,09,30,27,02,04,,,,2.0,1.1,1.6*37
$GPRMC,133832.000,A,4841.2667,N,01132.3672,E,0.05,118.98,080809,,*03
$GPGGA,133833.000,4841.2667,N,01132.3672,E,1,09,1.1,366.0,M,47.6,M,,0000*57
$GPGSA,A,3,14,26,29,12,09,30,27,02,04,,,,2.0,1.1,1.6*37
$GPRMC,133833.000,A,4841.2667,N,01132.3672,E,0.05,123.52,080809,,*0C
$GPGGA,133834.000,4841.2667,N,01132.3673,E,1,09,1.1,366.0,M,47.6,M,,0000*51
$GPGSA,A,3,14,26,29,12,09,30,27,02,04,,,,2.0,1.1,1.6*37
$GPRMC,133834.000,A,4841.2667,N,01132.3673,E,0.03,117.63,080809,,*09
$GPGGA,133835.000,4841.2667,N,01132.3673,E,1,09,1.1,366.0,M,47.6,M,,0000*50
$GPGSA,A,3,14,26,29,12,09,30,27,02,04,,,,2.0,1.1,1.6*37
$GPRMC,133835.000,A,4841.2667,N,01132.3673,E,0.06,127.45,080809,,*0A
$GPGGA,133836.000,4841.2667,N,01132.3673,E,1,09,1.1,366.0,M,47.6,M,,0000*53
$GPGSA,A,3,14,26,29,12,09,30,27,02,04,,,,2.0,1.1,1.6*37
$GPGSV,3,1,09,12,81,329,37,09,52,135,42,30,50,271,38,26,44,231,31*74
$GPGSV,3,2,09,27,41,135,41,14,39,292,36,04,23,076,39,02,21,112,37*79
$GPGSV,3,3,09,29,13,206,28*47
$GPRMC,133836.000,A,4841.2667,N,01132.3673,E,0.04,118.46,080809,,*04
$GPGGA,133837.000,4841.2667,N,01132.3673,E,1,09,1.1,366.0,M,47.6,M,,0000*52
$GPGSA,A,3,14,26,29,12,09,30,27,02,04,,,,2.0,1.1,1.6*37
$GPRMC,133837.000,A,4841.2667,N,01132.3673,E,0.05,132.96,080809,,*01
$GPGGA,133838.000,4841.2667,N,01132.3673,E,1,09,1.1,366.0,M,47.6,M,,0000*5D
$GPGSA,A,3,14,26,29,12,09,30,27,02,04,,,,2.0,1.1,1.6*37
$GPRMC,133838.000,A,4841.2667,N,01132.3673,E,0.04,128.60,080809,,*0D
$GPGGA,133839.000,4841.2667,N,01132.3673,E,1,09,1.1,366.0,M,47.6,M,,0000*5C
$GPGSA,A,3,14,26,29,12,09,30,27,02,04,,,,2.0,1.1,1.6*37
$GPRMC,133839.000,A,4841.2667,N,01132.3673,E,0.06,141.83,080809,,*0C
$GPGGA,133840.000,4841.2667,N,01132.3673,E,1,09,1.1,366.0,M,47.6,M,,0000*52
$GPGSA,A,3,14,26,29,12,09,30,27,02,04,,,,2.0,1.1,1.6*37
$GPRMC,133840.000,A,4841.2667,N,01132.3673,E,0.04,120.91,080809,,*04
$GPGGA,133841.000,4841.2667,N,01132.3673,E,1,09,1.1,366.0,M,47.6,M,,0000*53
$GPGSA,A,3,14,26,29,12,09,30,27,02,04,,,,2.0,1.1,1.6*37
$GPGSV,3,1,09,12,81,329,37,09,52,135,42,30,50,271,38,26,44,231,32*77
$GPGSV,3,2,09,27,41,135,41,14,39,292,36,04,23,076,39,02,21,112,37*79
$GPGSV,3,3,09,29,13,206,28*47
$GPRMC,133841.000,A,4841.2667,N,01132.3673,E,0.06,128.58,080809,,*0A
$GPGGA,133842.000,4841.2667,N,01132.3673,E,1,09,1.1,366.0,M,47.6,M,,0000*50
$GPGSA,A,3,14,26,29,12,09,30,27,02,04,,,,2.0,1.1,1.6*37
$GPRMC,133842.000,A,4841.2667,N,01132.3673,E,0.04,135.84,080809,,*06
$GPGGA,133843.000,4841.2667,N,01132.3673,E,1,09,1.1,366.0,M,47.6,M,,0000*51
$GPGSA,A,3,14,26,29,12,09,30,27,02,04,,,,2.0,1.1,1.6*37
$GPRMC,133843.000,A,4841.2667,N,01132.3673,E,0.06,121.20,080809,,*0E
$GPGGA,133844.000,4841.2667,N,01132.3673,E,1,09,1.1,366.0,M,47.6,M,,0000*56
$GPGSA,A,3,14,26,29,12,09,30,27,02,04,,,,2.0,1.1,1.6*37
$GPRMC,133844.000,A,4841.2667,N,01132.3673,E,0.05,111.98,080809,,*0A
$GPGGA,133845.000,4841.2667,N,01132.3673,E,1,09,1.1,366.0,M,47.6,M,,0000*57
$GPGSA,A,3,14,26,29,12,09,30,27,02,04,,,,2.0,1.1,1.6*37
$GPRMC,133845.000,A,4841.2667,N,01132.3673,E,0.05,167.57,080809,,*09
$GPGGA,133846.000,4841.2667,N,01132.3673,E,1,09,1.1,366.0,M,47.6,M,,0000*54
$GPGSA,A,3,14,26,29,12,09,30,27,02,04,,,,2.0,1.1,1.6*37
$GPGSV,3,1,09,12,81,330,37,09,52,135,42,30,50,271,36,26,44,230,31*73
$GPGSV,3,2,09,27,41,135,40,14,39,291,35,04,23,076,39,02,21,112,37*78
$GPGSV,3,3,09,29,13,206,27*48
$GPRMC,133846.000,A,4841.2667,N,01132.3673,E,0.53,19.81,080809,,*3A
$GPGGA,133847.000,4841.2669,N,01132.3674,E,1,09,1.1,366.0,M,47.6,M,,0000*5C
$GPGSA,A,3,14,26,29,12,09,30,27,02,04,,,,2.0,1.1,1.6*37
$GPRMC,133847.000,A,4841.2669,N,01132.3674,E,0.90,14.90,080809,,*30
$GPGGA,133848.000,4841.2672,N,01132.3674,E,1,09,1.1,366.0,M,47.6,M,,0000*59
$GPGSA,A,3,14,26,29,12,09,30,27,02,04,,,,2.0,1.1,1.6*37
$GPRMC,133848.000,A,4841.2672,N,01132.3674,E,0.97,347.77,080809,,*0E
$GPGGA,133849.000,4841.2676,N,01132.3675,E,1,09,1.1,365.9,M,47.6,M,,0000*57
$GPGSA,A,3,14,26,29,12,09,30,27,02,04,,,,2.0,1.1,1.6*37
$GPRMC,133849.000,A,4841.2676,N,01132.3675,E,1.53,33.08,080809,,*3B
$GPGGA,133850.000,4841.2678,N,01132.3677,E,1,09,1.1,365.9,M,47.6,M,,0000*53
$GPGSA,A,3,14,26,29,12,09,30,27,02,04,,,,2.0,1.1,1.6*37
$GPRMC,133850.000,A,4841.2678,N,01132.3677,E,0.64,358.64,080809,,*0E
$GPGGA,133851.000,4841.2679,N,01132.3677,E,1,09,1.1,366.0,M,47.6,M,,0000*59
$GPGSA,A,3,14,26,29,12,09,30,27,02,04,,,,2.0,1.1,1.6*37
$GPGSV,3,1,09,12,81,330,36,09,52,135,29,30,50,271,26,26,44,230,32*7D
$GPGSV,3,2,09,27,41,135,29,14,39,291,27,04,23,076,32,02,21,112,33*7B
$GPGSV,3,3,09,29,13,206,28*47
$GPRMC,133851.000,A,4841.2679,N,01132.3677,E,0.55,1.02,080809,,*03
$GPGGA,133852.000,4841.2679,N,01132.3677,E,1,09,1.1,365.9,M,47.6,M,,0000*50
$GPGSA,A,3,14,26,29,12,09,30,27,02,04,,,,2.0,1.1,1.6*37
$GPRMC,133852.000,A,4841.2679,N,01132.3677,E,0.06,301.69,080809,,*08
$GPGGA,133853.000,4841.2680,N,01132.3676,E,1,09,1.1,365.8,M,47.6,M,,0000*57
$GPGSA,A,3,14,26,29,12,09,30,27,02,04,,,,2.0,1.1,1.6*37
$GPRMC,133853.000,A,4841.2680,N,01132.3676,E,0.47,323.22,080809,,*04
$GPGGA,133854.000,4841.2678,N,01132.3677,E,1,09,1.1,365.7,M,47.6,M,,0000*59
$GPGSA,A,3,14,26,29,12,09,30,27,02,04,,,,2.0,1.1,1.6*37
$GPRMC,133854.000,A,4841.2678,N,01132.3677,E,0.75,135.67,080809,,*00
$GPGGA,133855.000,4841.2678,N,01132.3678,E,1,09,1.1,365.6,M,47.6,M,,0000*56
$GPGSA,A,3,14,26,29,12,09,30,27,02,04,,,,2.0,1.1,1.6*37
$GPRMC,133855.000,A,4841.2678,N,01132.3678,E,0.12,30.12,080809,,*39
$GPGGA,133856.000,4841.2678,N,01132.3679,E,1,09,1.1,365.4,M,47.6,M,,0000*56
$GPGSA,A,3,14,26,29,12,09,30,27,02,04,,,,2.0,1.1,1.6*37
$GPGSV,3,1,09,12,81,330,25,09,52,135,32,30,50,271,25,26,44,230,31*75
$GPGSV,3,2,09,27,41,135,35,14,39,291,25,04,23,076,28,02,21,112,33*7F
$GPGSV,3,3,09,29,13,206,31*4F
$GPRMC,133856.000,A,4841.2678,N,01132.3679,E,0.60,3.62,080809,,*09
$GPGGA,133857.000,4841.2678,N,01132.3678,E,1,08,1.2,365.4,M,47.6,M,,0000*54
$GPGSA,A,3,14,26,29,12,09,30,27,04,,,,,2.1,1.2,1.7*36
$GPRMC,133857.000,A,4841.2678,N,01132.3678,E,0.13,12.25,080809,,*3E
$GPGGA,133858.000,4841.2678,N,01132.3678,E,1,09,1.1,365.2,M,47.6,M,,0000*5F
$GPGSA,A,3,14,26,29,12,09,30,27,02,04,,,,2.0,1.1,1.6*37
$GPRMC,133858.000,A,4841.2678,N,01132.3678,E,0.10,140.33,080809,,*03
$GPGGA,133859.000,4841.2675,N,01132.3679,E,1,08,1.4,365.1,M,47.6,M,,0000*55
$GPGSA,A,3,14,26,12,09,30,27,02,04,,,,,2.6,1.4,2.2*38
$GPRMC,133859.000,A,4841.2675,N,01132.3679,E,1.65,186.58,080809,,*0A
$GPGGA,133900.000,4841.2674,N,01132.3683,E,1,09,1.1,365.4,M,47.6,M,,0000*5D
$GPGSA,A,3,14,26,29,12,09,30,27,02,04,,,,2.0,1.1,1.6*37
$GPRMC,133900.000,A,4841.2674,N,01132.3683,E,1.05,68.47,080809,,*3A
$GPGGA,133901.000,4841.2677,N,01132.3686,E,1,09,1.1,365.6,M,47.6,M,,0000*58
$GPGSA,A,3,14,26,29,12,09,30,27,02,04,,,,2.0,1.1,1.6*37
$GPGSV,3,1,09,12,81,330,14,09,52,135,19,30,50,271,23,26,44,230,21*79
$GPGSV,3,2,09,27,41,135,25,14,39,291,24,04,23,076,25,02,21,112,19*7A
$GPGSV,3,3,09,29,13,206,21*4E
$GPRMC,133901.000,A,4841.2677,N,01132.3686,E,0.95,15.15,080809,,*38
$GPGGA,133902.000,4841.2678,N,01132.3686,E,1,09,1.1,366.0,M,47.6,M,,0000*51
$GPGSA,A,3,14,26,29,12,09,30,27,02,04,,,,2.0,1.1,1.6*37
$GPRMC,133902.000,A,4841.2678,N,01132.3686,E,0.21,318.22,080809,,*01
$GPGGA,133903.000,4841.2676,N,01132.3686,E,1,09,1.1,365.8,M,47.6,M,,0000*55
$GPGSA,A,3,14,26,29,12,09,30,27,02,04,,,,2.0,1.1,1.6*37
$GPRMC,133903.000,A,4841.2676,N,01132.3686,E,0.74,158.55,080809,,*08
$GPGGA,133904.000,4841.2673,N,01132.3684,E,1,09,1.1,366.0,M,47.6,M,,0000*5E
$GPGSA,A,3,14,26,29,12,09,30,27,02,04,,,,2.0,1.1,1.6*37
$GPRMC,133904.000,A,4841.2673,N,01132.3684,E,0.74,209.21,080809,,*0C
$GPGGA,133905.000,4841.2674,N,01132.3680,E,1,09,1.1,366.9,M,47.6,M,,0000*55
$GPGSA,A,3,14,26,29,12,09,30,27,02,04,,,,2.0,1.1,1.6*37
$GPRMC,133905.000,A,4841.2674,N,01132.3680,E,0.78,311.28,080809,,*03
$GPGGA,133906.000,4841.2676,N,01132.3680,E,1,09,1.1,366.9,M,47.6,M,,0000*54
$GPGSA,A,3,14,26,29,12,09,30,27,02,04,,,,2.0,1.1,1.6*37
$GPGSV,3,1,09,12,81,330,25,09,52,135,26,30,50,271,24,26,44,230,21*70
$GPGSV,3,2,09,27,41,135,24,14,39,291,24,04,23,076,24,02,21,112,18*7B
$GPGSV,3,3,09,29,13,206,20*4F
$GPRMC,133906.000,A,4841.2676,N,01132.3680,E,1.95,19.93,080809,,*3B
$GPGGA,133907.000,4841.2679,N,01132.3681,E,1,09,1.1,367.2,M,47.6,M,,0000*51
$GPGSA,A,3,14,26,29,12,09,30,27,02,04,,,,2.0,1.1,1.6*37
$GPRMC,133907.000,A,4841.2679,N,01132.3681,E,0.80,346.17,080809,,*04
$GPGGA,133908.000,4841.2679,N,01132.3684,E,1,08,1.1,367.0,M,47.6,M,,0000*58
$GPGSA,A,3,14,26,29,09,30,27,02,04,,,,,2.2,1.1,1.9*39
$GPRMC,133908.000,A,4841.2679,N,01132.3684,E,0.11,336.50,080809,,*02
$GPGGA,133909.000,4841.2681,N,01132.3681,E,1,08,1.2,367.0,M,47.6,M,,0000*58
$GPGSA,A,3,14,26,29,12,09,27,02,04,,,,,2.0,1.2,1.6*37
$GPRMC,133909.000,A,4841.2681,N,01132.3681,E,0.58,241.65,080809,,*0B
$GPGGA,133910.000,4841.2683,N,01132.3677,E,1,08,1.2,366.7,M,47.6,M,,0000*5D
$GPGSA,A,3,14,26,29,12,09,27,02,04,,,,,2.0,1.2,1.6*37
$GPRMC,133910.000,A,4841.2683,N,01132.3677,E,0.74,303.47,080809,,*01
$GPGGA,133911.000,4841.2684,N,01132.3675,E,1,08,1.2,366.4,M,47.6,M,,0000*5A
$GPGSA,A,3,14,26,29,12,09,27,02,04,,,,,2.0,1.2,1.6*37
$GPGSV,3,1,09,12,81,330,23,09,52,135,27,30,50,271,14,26,44,230,22*77
$GPGSV,3,2,09,27,41,135,23,14,39,291,18,04,23,076,25,02,21,112,26*7F
$GPGSV,3,3,09,29,13,206,20*4F
$GPRMC,133911.000,A,4841.2684,N,01132.3675,E,0.94,314.20,080809,,*0C
$GPGGA,133912.000,4841.2686,N,01132.3672,E,1,06,1.6,366.4,M,47.6,M,,0000*56
$GPGSA,A,3,14,26,29,30,27,02,,,,,,,3.1,1.6,2.7*3C
$GPRMC,133912.000,A,4841.2686,N,01132.3672,E,1.92,304.78,080809,,*01
$GPGGA,133913.000,4841.2690,N,01132.3674,E,1,07,1.6,366.8,M,47.6,M,,0000*5B
$GPGSA,A,3,14,26,29,12,30,27,02,,,,,,2.7,1.6,2.2*3D
$GPRMC,133913.000,A,4841.2690,N,01132.3674,E,1.40,357.49,080809,,*0A
$GPGGA,133914.000,4841.2693,N,01132.3673,E,1,08,1.5,367.9,M,47.6,M,,0000*54
$GPGSA,A,3,14,26,29,12,09,30,27,02,,,,,2.5,1.5,2.0*37
$GPRMC,133914.000,A,4841.2693,N,01132.3673,E,1.59,283.84,080809,,*08
$GPGGA,133915.000,4841.2691,N,01132.3667,E,1,08,1.5,368.2,M,47.6,M,,0000*56
$GPGSA,A,3,14,26,29,12,09,30,27,02,,,,,2.5,1.5,2.0*37
$GPRMC,133915.000,A,4841.2691,N,01132.3667,E,1.44,230.69,080809,,*09
$GPGGA,133916.000,4841.2685,N,01132.3667,E,1,08,1.5,368.2,M,47.6,M,,0000*50
$GPGSA,A,3,14,26,29,12,09,30,27,02,,,,,2.5,1.5,2.0*37
$GPGSV,3,1,09,12,81,330,17,09,52,135,16,30,50,271,28,26,44,230,28*77
$GPGSV,3,2,09,27,41,135,14,14,39,291,19,04,23,076,09,02,21,112,21*73
$GPGSV,3,3,09,29,13,206,19*45
$GPRMC,133916.000,A,4841.2685,N,01132.3667,E,0.68,188.72,080809,,*0A
$GPGGA,133917.000,4841.2679,N,01132.3671,E,1,08,1.5,369.2,M,47.6,M,,0000*54
$GPGSA,A,3,14,26,29,12,09,30,27,02,,,,,2.5,1.5,2.0*37
$GPRMC,133917.000,A,4841.2679,N,01132.3671,E,0.48,238.01,080809,,*01
$GPGGA,133918.000,4841.2677,N,01132.3671,E,1,08,1.5,369.9,M,47.6,M,,0000*5E
$GPGSA,A,3,14,26,29,12,09,30,27,02,,,,,2.5,1.5,2.0*37
$GPRMC,133918.000,A,4841.2677,N,01132.3671,E,0.48,292.86,080809,,*0F
$GPGGA,133919.000,4841.2676,N,01132.3673,E,1,08,1.5,370.3,M,47.6,M,,0000*5E
$GPGSA,A,3,14,26,29,12,09,30,27,02,,,,,2.5,1.5,2.0*37
$GPRMC,133919.000,A,4841.2676,N,01132.3673,E,0.31,116.75,080809,,*00
$GPGGA,133920.000,4841.2676,N,01132.3673,E,1,08,1.5,370.4,M,47.6,M,,0000*53
$GPGSA,A,3,14,26,29,12,09,30,27,02,,,,,2.5,1.5,2.0*37
$GPRMC,133920.000,A,4841.2676,N,01132.3673,E,0.22,348.82,080809,,*09
$GPGGA,133921.000,4841.2679,N,01132.3673,E,1,08,1.5,370.8,M,47.6,M,,0000*51
$GPGSA,A,3,14,26,29,12,09,30,27,02,,,,,2.5,1.5,2.0*37
$GPGSV,3,1,09,12,81,330,24,09,52,135,17,30,50,271,29,26,44,230,28*77
$GPGSV,3,2,09,27,41,135,14,14,39,291,25,04,23,076,12,02,21,112,22*75
$GPGSV,3,3,09,29,13,206,19*45
$GPRMC,133921.000,A,4841.2679,N,01132.3673,E,0.09,17.56,080809,,*3E
$GPGGA,133922.000,4841.2680,N,01132.3672,E,1,08,1.5,370.3,M,47.6,M,,0000*5E
$GPGSA,A,3,14,26,29,12,09,30,27,02,,,,,2.5,1.5,2.0*37
$GPRMC,133922.000,A,4841.2680,N,01132.3672,E,1.13,286.82,080809,,*03
$GPGGA,133923.000,4841.2684,N,01132.3671,E,1,08,1.5,370.3,M,47.6,M,,0000*58
$GPGSA,A,3,14,26,29,12,09,30,27,02,,,,,2.5,1.5,2.0*37
$GPRMC,133923.000,A,4841.2684,N,01132.3671,E,1.42,341.10,080809,,*00
$GPGGA,133924.000,4841.2688,N,01132.3674,E,1,08,1.5,370.1,M,47.6,M,,0000*54
$GPGSA,A,3,14,26,29,12,09,30,27,02,,,,,2.5,1.5,2.0*37
$GPRMC,133924.000,A,4841.2688,N,01132.3674,E,0.81,3.98,080809,,*05
$GPGGA,133925.000,4841.2684,N,01132.3675,E,1,08,1.5,371.2,M,47.6,M,,0000*5A
$GPGSA,A,3,14,26,29,12,09,30,27,02,,,,,2.5,1.5,2.0*37
$GPRMC,133925.000,A,4841.2684,N,01132.3675,E,0.60,240.63,080809,,*07
$GPGGA,133926.000,4841.2685,N,01132.3674,E,1,07,1.8,371.2,M,47.6,M,,0000*5B
$GPGSA,A,3,14,26,12,09,30,27,02,,,,,,3.0,1.8,2.4*31
$GPGSV,3,1,09,12,81,330,24,09,52,135,19,30,50,271,29,26,44,230,28*79
$GPGSV,3,2,09,27,41,135,12,14,39,291,26,04,23,076,11,02,21,112,23*72
$GPGSV,3,3,09,29,13,206,07*4A
$GPRMC,133926.000,A,4841.2685,N,01132.3674,E,0.63,82.08,080809,,*36
$GPGGA,133927.000,4841.2687,N,01132.3676,E,1,07,1.8,371.2,M,47.6,M,,0000*5A
$GPGSA,A,3,14,26,12,09,30,27,02,,,,,,3.0,1.8,2.4*31
$GPRMC,133927.000,A,4841.2687,N,01132.3676,E,0.88,38.78,080809,,*34
$GPGGA,133928.000,4841.2689,N,01132.3677,E,1,07,1.8,371.0,M,47.6,M,,0000*58
$GPGSA,A,3,14,26,12,09,30,27,02,,,,,,3.0,1.8,2.4*31
$GPRMC,133928.000,A,4841.2689,N,01132.3677,E,0.74,30.88,080809,,*30
$GPGGA,133929.000,4841.2689,N,01132.3680,E,1,07,1.8,371.9,M,47.6,M,,0000*58
$GPGSA,A,3,14,26,12,09,30,27,02,,,,,,3.0,1.8,2.4*31
$GPRMC,133929.000,A,4841.2689,N,01132.3680,E,0.75,349.25,080809,,*02
$GPGGA,133930.000,4841.2688,N,01132.3684,E,1,07,1.8,372.6,M,47.6,M,,0000*59
$GPGSA,A,3,14,26,12,09,30,27,02,,,,,,3.0,1.8,2.4*31
$GPRMC,133930.000,A,4841.2688,N,01132.3684,E,1.15,94.81,080809,,*35
$GPGGA,133931.000,4841.2684,N,01132.3686,E,1,07,1.8,373.3,M,47.6,M,,0000*52
$GPGSA,A,3,14,26,12,09,30,27,02,,,,,,3.0,1.8,2.4*31
$GPGSV,3,1,09,12,81,330,24,09,52,135,20,30,50,271,30,26,44,230,28*7B
$GPGSV,3,2,09,27,41,135,19,14,39,291,26,04,23,076,,02,21,112,23*79
$GPGSV,3,3,09,29,13,206,17*4B
$GPRMC,133931.000,A,4841.2684,N,01132.3686,E,0.98,156.22,080809,,*08
$GPGGA,133932.000,4841.2684,N,01132.3686,E,1,07,1.8,373.7,M,47.6,M,,0000*55
$GPGSA,A,3,14,26,12,09,30,27,02,,,,,,3.0,1.8,2.4*31
$GPRMC,133932.000,A,4841.2684,N,01132.3686,E,0.59,328.22,080809,,*0D
$GPGGA,133933.000,4841.2678,N,01132.3682,E,1,08,1.5,372.6,M,47.6,M,,0000*51
$GPGSA,A,3,14,26,12,09,30,27,29,02,,,,,2.5,1.5,2.0*37
$GPRMC,133933.000,A,4841.2678,N,01132.3682,E,0.68,192.84,080809,,*06
$GPGGA,133934.000,4841.2674,N,01132.3682,E,1,08,1.5,373.1,M,47.6,M,,0000*5C
$GPGSA,A,3,14,26,12,09,30,27,29,02,,,,,2.5,1.5,2.0*37
$GPRMC,133934.000,A,4841.2674,N,01132.3682,E,0.73,226.69,080809,,*08
$GPGGA,133935.000,4841.2669,N,01132.3682,E,1,08,1.5,372.7,M,47.6,M,,0000*56
$GPGSA,A,3,14,26,12,09,30,27,29,02,,,,,2.5,1.5,2.0*37
$GPRMC,133935.000,A,4841.2669,N,01132.3682,E,1.42,185.03,080809,,*00
$GPGGA,133936.000,4841.2666,N,01132.3682,E,1,08,1.5,373.4,M,47.6,M,,0000*58
$GPGSA,A,3,14,26,12,09,30,27,29,02,,,,,2.5,1.5,2.0*37
$GPGSV,3,1,09,12,81,330,25,09,52,135,21,30,50,271,25,26,44,230,24*73
$GPGSV,3,2,09,27,41,135,18,14,39,291,23,04,23,076,13,02,21,112,22*7E
$GPGSV,3,3,09,29,13,206,16*4A
$GPRMC,133936.000,A,4841.2666,N,01132.3682,E,0.39,159.51,080809,,*07
$GPGGA,133937.000,4841.2667,N,01132.3686,E,1,09,1.1,371.5,M,47.6,M,,0000*5A
$GPGSA,A,3,14,26,04,12,09,30,27,29,02,,,,2.0,1.1,1.6*37
$GPRMC,133937.000,A,4841.2667,N,01132.3686,E,1.06,141.99,080809,,*03
$GPGGA,133938.000,4841.2672,N,01132.3689,E,1,09,1.1,369.9,M,47.6,M,,0000*5B
$GPGSA,A,3,14,26,04,12,09,30,27,29,02,,,,2.0,1.1,1.6*37
$GPRMC,133938.000,A,4841.2672,N,01132.3689,E,0.60,24.47,080809,,*37
$GPGGA,133939.000,4841.2677,N,01132.3688,E,1,09,1.1,369.0,M,47.6,M,,0000*57
$GPGSA,A,3,14,26,04,12,09,30,27,29,02,,,,2.0,1.1,1.6*37
$GPRMC,133939.000,A,4841.2677,N,01132.3688,E,0.95,6.80,080809,,*03
$GPGGA,133940.000,4841.2680,N,01132.3687,E,1,09,1.1,368.8,M,47.6,M,,0000*57
$GPGSA,A,3,14,26,04,12,09,30,27,29,02,,,,2.0,1.1,1.6*37
$GPRMC,133940.000,A,4841.2680,N,01132.3687,E,1.10,53.73,080809,,*3A
$GPGGA,133941.000,4841.2679,N,01132.3686,E,1,09,1.1,367.8,M,47.6,M,,0000*5E
$GPGSA,A,3,14,26,04,12,09,30,27,29,02,,,,2.0,1.1,1.6*37
$GPGSV,3,1,09,12,81,330,25,09,52,135,22,30,50,271,29,26,44,230,27*7F
$GPGSV,3,2,09,27,41,135,17,14,39,291,23,04,23,076,14,02,21,112,23*77
$GPGSV,3,3,09,29,13,206,15*49
$GPRMC,133941.000,A,4841.2679,N,01132.3686,E,0.83,145.34,080809,,*02
$GPGGA,133942.000,4841.2680,N,01132.3689,E,1,09,1.1,367.7,M,47.6,M,,0000*5B
$GPGSA,A,3,14,26,04,12,09,30,27,29,02,,,,2.0,1.1,1.7*36
$GPRMC,133942.000,A,4841.2680,N,01132.3689,E,0.90,81.74,080809,,*37
$GPGGA,133943.000,4841.2684,N,01132.3689,E,1,09,1.1,367.0,M,47.6,M,,0000*59
$GPGSA,A,3,14,26,04,12,09,30,27,29,02,,,,2.0,1.1,1.7*36
$GPRMC,133943.000,A,4841.2684,N,01132.3689,E,0.56,207.69,080809,,*08
$GPGGA,133944.000,4841.2685,N,01132.3691,E,1,09,1.1,366.9,M,47.6,M,,0000*5E
$GPGSA,A,3,14,26,04,12,09,30,27,29,02,,,,2.0,1.1,1.7*36
$GPRMC,133944.000,A,4841.2685,N,01132.3691,E,0.24,309.45,080809,,*03
$GPGGA,133945.000,4841.2681,N,01132.3688,E,1,09,1.1,366.7,M,47.6,M,,0000*5D
$GPGSA,A,3,14,26,04,12,09,30,27,29,02,,,,2.0,1.1,1.7*36
$GPRMC,133945.000,A,4841.2681,N,01132.3688,E,0.99,192.39,080809,,*03
$GPGGA,133946.000,4841.2679,N,01132.3687,E,1,08,1.5,366.8,M,47.6,M,,0000*5C
$GPGSA,A,3,14,26,12,09,30,27,29,02,,,,,2.5,1.5,2.0*37
$GPGSV,3,1,09,12,81,330,25,09,52,135,24,30,50,271,28,26,44,230,23*7C
$GPGSV,3,2,09,27,41,135,16,14,39,291,24,04,23,076,14,02,21,112,23*71
$GPGSV,3,3,09,29,13,206,14*48
$GPRMC,133946.000,A,4841.2679,N,01132.3687,E,0.86,176.53,080809,,*00
$GPGGA,133947.000,4841.2678,N,01132.3686,E,1,09,1.1,367.2,M,47.6,M,,0000*53
$GPGSA,A,3,14,26,04,12,09,30,27,29,02,,,,2.0,1.1,1.7*36
$GPRMC,133947.000,A,4841.2678,N,01132.3686,E,0.35,76.96,080809,,*31
$GPGGA,133948.000,4841.2676,N,01132.3684,E,1,09,1.1,367.3,M,47.6,M,,0000*51
$GPGSA,A,3,14,26,04,12,09,30,27,29,02,,,,2.0,1.1,1.7*36
$GPRMC,133948.000,A,4841.2676,N,01132.3684,E,0.89,166.41,080809,,*0F
$GPGGA,133949.000,4841.2681,N,01132.3681,E,1,09,1.1,366.5,M,47.6,M,,0000*5A
$GPGSA,A,3,14,26,04,12,09,30,27,29,02,,,,2.0,1.1,1.7*36
$GPRMC,133949.000,A,4841.2681,N,01132.3681,E,1.10,341.56,080809,,*03
$GPGGA,133950.000,4841.2678,N,01132.3679,E,1,09,1.1,367.3,M,47.6,M,,0000*54
$GPGSA,A,3,14,26,04,12,09,30,27,29,02,,,,2.0,1.1,1.7*36
$GPRMC,133950.000,A,4841.2678,N,01132.3679,E,0.65,350.45,080809,,*0B
$GPGGA,133951.000,4841.2673,N,01132.3679,E,1,09,1.1,368.2,M,47.6,M,,0000*50
$GPGSA,A,3,14,26,04,12,09,30,27,29,02,,,,2.0,1.1,1.7*36
$GPGSV,3,1,09,12,81,330,26,09,52,135,24,30,50,271,27,26,44,230,29*7A
$GPGSV,3,2,09,27,41,135,17,14,39,291,23,04,23,076,14,02,21,112,23*77
$GPGSV,3,3,09,29,13,206,15*49
$GPRMC,133951.000,A,4841.2673,N,01132.3679,E,0.84,179.71,080809,,*00
$GPGGA,133952.000,4841.2670,N,01132.3678,E,1,09,1.1,367.8,M,47.6,M,,0000*54
$GPGSA,A,3,14,26,04,12,09,30,27,29,02,,,,2.0,1.1,1.7*36
$GPRMC,133952.000,A,4841.2670,N,01132.3678,E,0.43,315.11,080809,,*04
$GPGGA,133953.000,4841.2669,N,01132.3678,E,1,09,1.1,368.2,M,47.6,M,,0000*58
$GPGSA,A,3,14,26,04,12,09,30,27,29,02,,,,2.0,1.1,1.7*36
$GPRMC,133953.000,A,4841.2669,N,01132.3678,E,1.48,28.72,080809,,*3F
$GPGGA,133954.000,4841.2666,N,01132.3682,E,1,09,1.1,368.5,M,47.6,M,,0000*52
$GPGSA,A,3,14,26,04,12,09,30,27,29,02,,,,2.0,1.1,1.7*36
$GPRMC,133954.000,A,4841.2666,N,01132.3682,E,1.18,106.29,080809,,*04
$GPGGA,133955.000,4841.2664,N,01132.3685,E,1,09,1.1,369.1,M,47.6,M,,0000*53
$GPGSA,A,3,14,26,04,12,09,30,27,29,02,,,,2.0,1.1,1.7*36
$GPRMC,133955.000,A,4841.2664,N,01132.3685,E,0.74,82.48,080809,,*31
$GPGGA,133956.000,4841.2659,N,01132.3687,E,1,09,1.1,370.1,M,47.6,M,,0000*54
$GPGSA,A,3,14,26,04,12,09,30,27,29,02,,,,2.0,1.1,1.7*36
$GPGSV,3,1,09,12,81,330,27,09,52,135,24,30,50,271,28,26,44,230,26*7B
$GPGSV,3,2,09,27,41,135,17,14,39,291,16,04,23,076,15,02,21,112,23*70
$GPGSV,3,3,09,29,13,206,16*4A
$GPRMC,133956.000,A,4841.2659,N,01132.3687,E,0.66,96.75,080809,,*36
$GPGGA,133957.000,4841.2654,N,01132.3687,E,1,09,1.1,370.7,M,47.6,M,,0000*5E
$GPGSA,A,3,14,26,04,12,09,30,27,29,02,,,,2.0,1.1,1.7*36
$GPRMC,133957.000,A,4841.2654,N,01132.3687,E,0.58,217.35,080809,,*08
$GPGGA,133958.000,4841.2651,N,01132.3685,E,1,09,1.1,369.7,M,47.6,M,,0000*5E
$GPGSA,A,3,14,26,04,12,09,30,27,29,02,,,,2.0,1.1,1.7*36
$GPRMC,133958.000,A,4841.2651,N,01132.3685,E,0.90,239.29,080809,,*05
$GPGGA,133959.000,4841.2650,N,01132.3684,E,1,09,1.1,369.5,M,47.6,M,,0000*5D
$GPGSA,A,3,14,26,04,12,09,30,27,29,02,,,,2.0,1.1,1.7*36
$GPRMC,133959.000,A,4841.2650,N,01132.3684,E,0.17,340.36,080809,,*0A
$GPGGA,134000.000,4841.2651,N,01132.3685,E,1,09,1.1,368.0,M,47.6,M,,0000*5B
$GPGSA,A,3,14,26,04,12,09,30,27,29,02,,,,2.0,1.1,1.7*36
$GPRMC,134000.000,A,4841.2651,N,01132.3685,E,0.73,147.01,080809,,*0B
$GPGGA,134001.000,4841.2646,N,01132.3686,E,1,09,1.1,368.3,M,47.6,M,,0000*5C
$GPGSA,A,3,14,26,04,12,09,30,27,29,02,,,,2.0,1.1,1.7*36
$GPGSV,3,1,09,12,81,330,26,09,52,135,24,30,50,271,28,26,44,230,23*7F
$GPGSV,3,2,09,27,41,135,17,14,39,291,21,04,23,076,16,02,21,112,23*77
$GPGSV,3,3,09,29,13,206,16*4A
$GPRMC,134001.000,A,4841.2646,N,01132.3686,E,1.06,209.45,080809,,*05
$GPGGA,134002.000,4841.2644,N,01132.3686,E,1,09,1.1,367.4,M,47.6,M,,0000*55
$GPGSA,A,3,14,26,04,12,09,30,27,29,02,,,,2.0,1.1,1.7*36
$GPRMC,134002.000,A,4841.2644,N,01132.3686,E,0.87,187.03,080809,,*0B
$GPGGA,134003.000,4841.2643,N,01132.3686,E,1,09,1.1,367.1,M,47.6,M,,0000*56
$GPGSA,A,3,14,26,04,12,09,30,27,29,02,,,,2.0,1.1,1.7*36
$GPRMC,134003.000,A,4841.2643,N,01132.3686,E,1.17,212.88,080809,,*09
$GPGGA,134004.000,4841.2643,N,01132.3688,E,1,09,1.1,368.1,M,47.6,M,,0000*50
$GPGSA,A,3,14,26,04,12,09,30,27,29,02,,,,2.0,1.1,1.7*36
$GPRMC,134004.000,A,4841.2643,N,01132.3688,E,0.62,219.21,080809,,*0B
$GPGGA,134005.000,4841.2645,N,01132.3689,E,1,09,1.1,367.7,M,47.6,M,,0000*5F
$GPGSA,A,3,14,26,04,12,09,30,27,29,02,,,,2.0,1.1,1.7*36
$GPRMC,134005.000,A,4841.2645,N,01132.3689,E,0.37,27.45,080809,,*30
$GPGGA,134006.000,4841.2649,N,01132.3693,E,1,09,1.1,367.3,M,47.6,M,,0000*5F
$GPGSA,A,3,14,26,04,12,09,30,27,29,02,,,,2.0,1.1,1.7*36
$GPGSV,3,1,09,12,81,330,26,09,52,135,24,30,50,271,28,26,44,230,25*79
$GPGSV,3,2,09,27,41,135,16,14,39,291,22,04,23,076,15,02,21,112,23*76
$GPGSV,3,3,09,29,13,206,14*48
$GPRMC,134006.000,A,4841.2649,N,01132.3693,E,0.83,97.27,080809,,*34
$GPGGA,134007.000,4841.2654,N,01132.3698,E,1,09,1.1,366.5,M,47.6,M,,0000*5E
$GPGSA,A,3,14,26,04,12,09,30,27,29,02,,,,2.0,1.1,1.7*36
$GPRMC,134007.000,A,4841.2654,N,01132.3698,E,0.91,63.85,080809,,*32
$GPGGA,134008.000,4841.2658,N,01132.3700,E,1,09,1.1,366.0,M,47.6,M,,0000*58
$GPGSA,A,3,14,26,04,12,09,30,27,29,02,,,,2.0,1.1,1.7*36
$GPRMC,134008.000,A,4841.2658,N,01132.3700,E,1.46,44.28,080809,,*38
$GPGGA,134009.000,4841.2661,N,01132.3704,E,1,08,1.4,366.0,M,47.6,M,,0000*53
$GPGSA,A,3,14,26,04,12,09,30,27,02,,,,,2.6,1.4,2.3*39
$GPRMC,134009.000,A,4841.2661,N,01132.3704,E,1.28,67.02,080809,,*36
$GPGGA,134010.000,4841.2662,N,01132.3707,E,1,09,1.1,365.5,M,47.6,M,,0000*59
$GPGSA,A,3,14,26,04,12,09,30,27,29,02,,,,2.0,1.1,1.7*36
$GPRMC,134010.000,A,4841.2662,N,01132.3707,E,1.02,15.08,080809,,*39
$GPGGA,134011.000,4841.2659,N,01132.3707,E,1,09,1.1,365.9,M,47.6,M,,0000*5C
$GPGSA,A,3,14,26,04,12,09,30,27,29,02,,,,2.0,1.1,1.7*36
$GPGSV,3,1,09,12,81,330,26,09,52,135,23,30,50,271,28,26,44,230,25*7E
$GPGSV,3,2,09,27,41,135,15,14,39,291,22,04,23,076,14,02,21,112,23*74
$GPGSV,3,3,09,29,13,206,13*4F
$GPRMC,134011.000,A,4841.2659,N,01132.3707,E,1.41,109.15,080809,,*07
$GPGGA,134012.000,4841.2655,N,01132.3711,E,1,08,1.4,366.8,M,47.6,M,,0000*52
$GPGSA,A,3,14,26,04,12,09,30,27,02,,,,,2.6,1.4,2.3*39
$GPRMC,134012.000,A,4841.2655,N,01132.3711,E,0.49,149.22,080809,,*06
$GPGGA,134013.000,4841.2653,N,01132.3712,E,1,08,1.4,367.2,M,47.6,M,,0000*5D
$GPGSA,A,3,14,26,04,12,09,30,27,02,,,,,2.6,1.4,2.3*39
$GPRMC,134013.000,A,4841.2653,N,01132.3712,E,0.42,349.21,080809,,*08
$GPGGA,134014.000,4841.2657,N,01132.3709,E,1,08,1.4,367.1,M,47.6,M,,0000*57
$GPGSA,A,3,14,26,04,12,09,30,27,02,,,,,2.6,1.4,2.3*39
$GPRMC,134014.000,A,4841.2657,N,01132.3709,E,0.52,342.35,080809,,*0E
$GPGGA,134015.000,4841.2662,N,01132.3704,E,1,08,1.4,367.1,M,47.6,M,,0000*5D
$GPGSA,A,3,14,26,04,12,09,30,27,02,,,,,2.6,1.4,2.3*39
$GPRMC,134015.000,A,4841.2662,N,01132.3704,E,1.20,306.63,080809,,*03
$GPGGA,134016.000,4841.2664,N,01132.3698,E,1,08,1.4,367.2,M,47.6,M,,0000*5F
$GPGSA,A,3,14,26,04,12,09,30,27,02,,,,,2.6,1.4,2.3*39
$GPGSV,3,1,09,12,81,335,26,09,51,136,17,30,51,271,29,26,43,230,25*7B
$GPGSV,3,2,09,27,40,136,16,14,39,290,23,04,23,076,14,02,22,112,23*76
$GPGSV,3,3,09,29,13,206,14*48
$GPRMC,134016.000,A,4841.2664,N,01132.3698,E,0.73,231.93,080809,,*0F
$GPGGA,134017.000,4841.2665,N,01132.3693,E,1,09,1.1,367.1,M,47.6,M,,0000*53
$GPGSA,A,3,14,26,04,12,09,30,27,29,02,,,,2.0,1.1,1.7*36
$GPRMC,134017.000,A,4841.2665,N,01132.3693,E,0.56,300.74,080809,,*09
$GPGGA,134018.000,4841.2664,N,01132.3688,E,1,09,1.1,367.5,M,47.6,M,,0000*53
$GPGSA,A,3,14,26,04,12,09,30,27,29,02,,,,2.0,1.1,1.7*36
$GPRMC,134018.000,A,4841.2664,N,01132.3688,E,0.46,323.53,080809,,*08
$GPGGA,134019.000,4841.2664,N,01132.3683,E,1,09,1.1,368.5,M,47.6,M,,0000*56
$GPGSA,A,3,14,26,04,12,09,30,27,29,02,,,,2.0,1.1,1.7*36
$GPRMC,134019.000,A,4841.2664,N,01132.3683,E,1.39,315.11,080809,,*08
$GPGGA,134020.000,4841.2670,N,01132.3676,E,1,09,1.1,369.0,M,47.6,M,,0000*57
$GPGSA,A,3,14,26,04,12,09,30,27,29,02,,,,2.0,1.1,1.7*36
$GPRMC,134020.000,A,4841.2670,N,01132.3676,E,2.11,336.97,080809,,*0B
$GPGGA,134021.000,4841.2673,N,01132.3673,E,1,09,1.1,369.9,M,47.6,M,,0000*59
$GPGSA,A,3,14,26,04,12,09,30,27,29,02,,,,2.0,1.1,1.7*36
$GPGSV,3,1,09,12,81,335,26,09,51,136,18,30,51,271,29,26,43,230,25*74
$GPGSV,3,2,09,27,40,136,16,14,39,290,23,04,23,076,14,02,22,112,22*77
$GPGSV,3,3,09,29,13,206,15*49
$GPRMC,134021.000,A,4841.2673,N,01132.3673,E,0.40,132.12,080809,,*01
$GPGGA,134022.000,4841.2672,N,01132.3674,E,1,09,1.1,371.4,M,47.6,M,,0000*58
$GPGSA,A,3,14,26,04,12,09,30,27,29,02,,,,2.0,1.1,1.7*36
$GPRMC,134022.000,A,4841.2672,N,01132.3674,E,0.19,19.04,080809,,*37
$GPGGA,134023.000,4841.2676,N,01132.3675,E,1,09,1.1,371.9,M,47.6,M,,0000*51
$GPGSA,A,3,14,26,04,12,09,30,27,29,02,,,,2.0,1.1,1.7*36
$GPRMC,134023.000,A,4841.2676,N,01132.3675,E,1.07,336.50,080809,,*02
$GPGGA,134024.000,4841.2678,N,01132.3675,E,1,09,1.1,371.6,M,47.6,M,,0000*57
$GPGSA,A,3,14,26,04,12,09,30,27,29,02,,,,2.0,1.1,1.7*36
$GPRMC,134024.000,A,4841.2678,N,01132.3675,E,0.31,266.49,080809,,*03
$GPGGA,134025.000,4841.2677,N,01132.3677,E,1,09,1.1,371.7,M,47.6,M,,0000*5A
$GPGSA,A,3,14,26,04,12,09,30,27,29,02,,,,2.0,1.1,1.7*36
$GPRMC,134025.000,A,4841.2677,N,01132.3677,E,0.47,228.92,080809,,*02
$GPGGA,134026.000,4841.2676,N,01132.3678,E,1,09,1.1,371.5,M,47.6,M,,0000*55
$GPGSA,A,3,14,26,04,12,09,30,27,29,02,,,,2.0,1.1,1.7*36
$GPGSV,3,1,09,12,81,335,27,09,51,136,17,30,51,271,29,26,43,230,25*7A
$GPGSV,3,2,09,27,40,136,17,14,39,290,24,04,23,076,14,02,22,112,21*72
$GPGSV,3,3,09,29,13,206,17*4B
$GPRMC,134026.000,A,4841.2676,N,01132.3678,E,0.96,191.67,080809,,*08
$GPGGA,134027.000,4841.2675,N,01132.3679,E,1,09,1.1,371.4,M,47.6,M,,0000*57
$GPGSA,A,3,14,26,04,12,09,30,27,29,02,,,,2.0,1.1,1.7*36
$GPRMC,134027.000,A,4841.2675,N,01132.3679,E,0.88,220.95,080809,,*00
$GPGGA,134028.000,4841.2673,N,01132.3680,E,1,09,1.1,371.2,M,47.6,M,,0000*5E
$GPGSA,A,3,14,26,04,12,09,30,27,29,02,,,,2.0,1.1,1.7*36
$GPRMC,134028.000,A,4841.2673,N,01132.3680,E,1.23,169.47,080809,,*0E
$GPGGA,134029.000,4841.2674,N,01132.3681,E,1,09,1.1,370.5,M,47.6,M,,0000*5F
$GPGSA,A,3,14,26,04,12,09,30,27,29,02,,,,2.0,1.1,1.7*36
$GPRMC,134029.000,A,4841.2674,N,01132.3681,E,0.52,314.73,080809,,*01
$GPGGA,134030.000,4841.2674,N,01132.3679,E,1,09,1.1,371.2,M,47.6,M,,0000*56
$GPGSA,A,3,14,26,04,12,09,30,27,29,02,,,,2.0,1.1,1.7*36
$GPRMC,134030.000,A,4841.2674,N,01132.3679,E,0.83,248.23,080809,,*0F
$GPGGA,134031.000,4841.2674,N,01132.3676,E,1,09,1.1,371.6,M,47.6,M,,0000*5C
$GPGSA,A,3,14,26,04,12,09,30,27,29,02,,,,2.0,1.1,1.7*36
$GPGSV,3,1,09,12,81,335,27,09,51,136,21,30,51,271,29,26,43,230,24*7E
$GPGSV,3,2,09,27,40,136,18,14,39,290,24,04,23,076,15,02,22,112,22*7F
$GPGSV,3,3,09,29,13,206,17*4B
$GPRMC,134031.000,A,4841.2674,N,01132.3676,E,0.58,254.69,080809,,*04
$GPGGA,134032.000,4841.2673,N,01132.3675,E,1,09,1.1,371.5,M,47.6,M,,0000*58
$GPGSA,A,3,14,26,04,12,09,30,27,29,02,,,,2.0,1.1,1.7*36
$GPRMC,134032.000,A,4841.2673,N,01132.3675,E,0.91,230.39,080809,,*01
$GPGGA,134033.000,4841.2671,N,01132.3676,E,1,08,1.2,371.6,M,47.6,M,,0000*59
$GPGSA,A,3,14,26,04,12,09,30,29,02,,,,,2.1,1.2,1.7*31
$GPRMC,134033.000,A,4841.2671,N,01132.3676,E,1.25,180.50,080809,,*08
$GPGGA,134034.000,4841.2666,N,01132.3677,E,1,08,1.2,372.2,M,47.6,M,,0000*5E
$GPGSA,A,3,14,26,04,12,09,30,29,02,,,,,2.1,1.2,1.7*31
$GPRMC,134034.000,A,4841.2666,N,01132.3677,E,1.62,184.13,080809,,*08
$GPGGA,134035.000,4841.2662,N,01132.3677,E,1,08,1.2,372.6,M,47.6,M,,0000*5F
$GPGSA,A,3,14,26,04,12,09,30,29,02,,,,,2.1,1.2,1.7*31
$GPRMC,134035.000,A,4841.2662,N,01132.3677,E,1.02,150.63,080809,,*05
$GPGGA,134036.000,4841.2660,N,01132.3679,E,1,08,1.2,373.2,M,47.6,M,,0000*55
$GPGSA,A,3,14,26,04,12,09,30,29,02,,,,,2.1,1.2,1.7*31
$GPGSV,3,1,09,12,81,335,27,09,51,136,19,30,51,271,29,26,43,230,24*75
$GPGSV,3,2,09,27,40,136,18,14,39,290,23,04,23,076,13,02,22,112,22*7E
$GPGSV,3,3,09,29,13,206,16*4A
$GPRMC,134036.000,A,4841.2660,N,01132.3679,E,0.85,130.13,080809,,*05
$GPGGA,134037.000,4841.2657,N,01132.3680,E,1,07,1.5,374.0,M,47.6,M,,0000*5B
$GPGSA,A,3,14,26,04,12,30,29,02,,,,,,2.6,1.5,2.2*3E
$GPRMC,134037.000,A,4841.2657,N,01132.3680,E,1.45,178.40,080809,,*01
$GPGGA,134038.000,4841.2655,N,01132.3683,E,1,07,1.5,374.1,M,47.6,M,,0000*54
$GPGSA,A,3,14,26,04,12,30,29,02,,,,,,2.6,1.5,2.2*3E
$GPRMC,134038.000,A,4841.2655,N,01132.3683,E,0.75,82.34,080809,,*3A
$GPGGA,134039.000,4841.2660,N,01132.3684,E,1,07,1.5,373.8,M,47.6,M,,0000*5A
$GPGSA,A,3,14,26,04,12,30,29,02,,,,,,2.6,1.5,2.2*3E
$GPRMC,134039.000,A,4841.2660,N,01132.3684,E,1.39,345.92,080809,,*07
$GPGGA,134040.000,4841.2665,N,01132.3687,E,1,07,1.5,373.7,M,47.6,M,,0000*5D
$GPGSA,A,3,14,26,04,12,30,29,02,,,,,,2.6,1.5,2.2*3E
$GPRMC,134040.000,A,4841.2665,N,01132.3687,E,1.52,61.50,080809,,*39
$GPGGA,134041.000,4841.2673,N,01132.3692,E,1,07,1.5,373.0,M,47.6,M,,0000*58
$GPGSA,A,3,14,26,04,12,30,29,02,,,,,,2.6,1.5,2.2*3E
$GPGSV,3,1,09,12,81,335,27,09,51,136,17,30,51,271,29,26,43,230,24*7B
$GPGSV,3,2,09,27,40,136,17,14,39,290,24,04,23,076,15,02,22,112,22*70
$GPGSV,3,3,09,29,13,206,14*48
$GPRMC,134041.000,A,4841.2673,N,01132.3692,E,0.95,57.81,080809,,*38
$GPGGA,134042.000,4841.2681,N,01132.3697,E,1,07,1.5,371.9,M,47.6,M,,0000*58
$GPGSA,A,3,14,26,04,12,30,29,02,,,,,,2.6,1.5,2.2*3E
$GPRMC,134042.000,A,4841.2681,N,01132.3697,E,1.70,33.82,080809,,*38
$GPGGA,134043.000,4841.2687,N,01132.3698,E,1,07,1.5,371.8,M,47.6,M,,0000*51
$GPGSA,A,3,14,26,04,12,30,29,02,,,,,,2.6,1.5,2.2*3E
$GPRMC,134043.000,A,4841.2687,N,01132.3698,E,1.28,17.78,080809,,*3E
$GPGGA,134044.000,4841.2689,N,01132.3699,E,1,08,1.2,371.8,M,47.6,M,,0000*51
$GPGSA,A,3,14,26,04,12,09,30,29,02,,,,,2.1,1.2,1.7*31
$GPRMC,134044.000,A,4841.2689,N,01132.3699,E,1.78,339.34,080809,,*04
$GPGGA,134045.000,4841.2697,N,01132.3695,E,1,08,1.4,370.6,M,47.6,M,,0000*5A
$GPGSA,A,3,14,26,04,12,09,30,27,02,,,,,2.6,1.4,2.3*39
$GPRMC,134045.000,A,4841.2697,N,01132.3695,E,0.78,355.87,080809,,*05
$GPGGA,134046.000,4841.2702,N,01132.3695,E,1,08,1.4,370.5,M,47.6,M,,0000*57
$GPGSA,A,3,14,26,04,12,09,30,27,02,,,,,2.6,1.4,2.3*39
$GPGSV,3,1,09,12,81,336,28,30,51,272,29,09,51,136,15,26,43,229,24*7E
$GPGSV,3,2,09,27,40,136,22,14,39,290,24,04,23,075,15,02,22,112,22*75
$GPGSV,3,3,09,29,14,206,*4A
$GPRMC,134046.000,A,4841.2702,N,01132.3695,E,1.46,21.94,080809,,*35
$GPGGA,134047.000,4841.2707,N,01132.3698,E,1,08,1.4,369.6,M,47.6,M,,0000*55
$GPGSA,A,3,14,26,04,12,09,30,27,02,,,,,2.6,1.4,2.3*39
$GPRMC,134047.000,A,4841.2707,N,01132.3698,E,1.26,46.27,080809,,*33
$GPGGA,134048.000,4841.2710,N,01132.3698,E,1,08,1.4,368.5,M,47.6,M,,0000*5E
$GPGSA,A,3,14,26,04,12,09,30,27,02,,,,,2.6,1.4,2.3*39
$GPRMC,134048.000,A,4841.2710,N,01132.3698,E,0.89,130.33,080809,,*0B
$GPGGA,134049.000,4841.2710,N,01132.3697,E,1,09,1.1,367.9,M,47.6,M,,0000*57
$GPGSA,A,3,14,26,04,12,09,30,27,29,02,,,,2.0,1.1,1.7*36
$GPRMC,134049.000,A,4841.2710,N,01132.3697,E,0.50,106.02,080809,,*06
$GPGGA,134050.000,4841.2705,N,01132.3694,E,1,09,1.1,368.0,M,47.6,M,,0000*5E
$GPGSA,A,3,14,26,04,12,09,30,27,29,02,,,,2.0,1.1,1.7*36
$GPRMC,134050.000,A,4841.2705,N,01132.3694,E,0.58,167.67,080809,,*05
$GPGGA,134051.000,4841.2703,N,01132.3693,E,1,09,1.1,367.9,M,47.6,M,,0000*58
$GPGSA,A,3,14,26,04,12,09,30,27,29,02,,,,2.0,1.1,1.7*36
$GPGSV,3,1,09,12,81,336,27,30,51,272,30,09,51,136,15,26,43,229,25*78
$GPGSV,3,2,09,27,40,136,19,14,39,290,24,04,23,075,16,02,22,112,21*7D
$GPGSV,3,3,09,29,14,206,17*4C
$GPRMC,134051.000,A,4841.2703,N,01132.3693,E,1.05,59.04,080809,,*35
$GPGGA,134052.000,4841.2706,N,01132.3691,E,1,09,1.1,367.8,M,47.6,M,,0000*5D
$GPGSA,A,3,14,26,04,12,09,30,27,29,02,,,,2.0,1.1,1.7*36
$GPRMC,134052.000,A,4841.2706,N,01132.3691,E,1.95,359.16,080809,,*08
$GPGGA,134053.000,4841.2712,N,01132.3690,E,1,09,1.1,367.8,M,47.6,M,,0000*58
$GPGSA,A,3,14,26,04,12,09,30,27,29,02,,,,2.0,1.1,1.7*36
$GPRMC,134053.000,A,4841.2712,N,01132.3690,E,1.31,4.43,080809,,*08
$GPGGA,134054.000,4841.2712,N,01132.3689,E,1,09,1.1,368.1,M,47.6,M,,0000*51
$GPGSA,A,3,14,26,04,12,09,30,27,29,02,,,,2.0,1.1,1.7*36
$GPRMC,134054.000,A,4841.2712,N,01132.3689,E,0.74,0.14,080809,,*01
$GPGGA,134055.000,4841.2712,N,01132.3689,E,1,09,1.1,368.5,M,47.6,M,,0000*54
$GPGSA,A,3,14,26,04,12,09,30,27,29,02,,,,2.0,1.1,1.7*36
$GPRMC,134055.000,A,4841.2712,N,01132.3689,E,0.61,28.87,080809,,*34
$GPGGA,134056.000,4841.2712,N,01132.3691,E,1,09,1.1,368.4,M,47.6,M,,0000*5F
$GPGSA,A,3,14,26,04,12,09,30,27,29,02,,,,2.0,1.1,1.7*36
$GPGSV,3,1,09,12,81,336,27,30,51,272,30,09,51,136,24,26,43,229,26*79
$GPGSV,3,2,09,27,40,136,18,14,39,290,25,04,23,075,15,02,22,112,21*7E
$GPGSV,3,3,09,29,14,206,17*4C
$GPRMC,134056.000,A,4841.2712,N,01132.3691,E,1.07,40.01,080809,,*3F
$GPGGA,134057.000,4841.2714,N,01132.3690,E,1,09,1.1,369.2,M,47.6,M,,0000*5E
$GPGSA,A,3,14,26,04,12,09,30,27,29,02,,,,2.0,1.1,1.7*36
$GPRMC,134057.000,A,4841.2714,N,01132.3690,E,1.39,357.13,080809,,*02
$GPGGA,134058.000,4841.2710,N,01132.3691,E,1,09,1.1,369.1,M,47.6,M,,0000*57
$GPGSA,A,3,14,26,04,12,09,30,27,29,02,,,,2.0,1.1,1.7*36
$GPRMC,134058.000,A,4841.2710,N,01132.3691,E,1.19,166.10,080809,,*09
$GPGGA,134059.000,4841.2708,N,01132.3695,E,1,09,1.1,369.3,M,47.6,M,,0000*59
$GPGSA,A,3,14,26,04,12,09,30,27,29,02,,,,2.0,1.1,1.7*36
$GPRMC,134059.000,A,4841.2708,N,01132.3695,E,0.61,73.20,080809,,*3D
$GPGGA,134100.000,4841.2704,N,01132.3698,E,1,09,1.1,369.2,M,47.6,M,,0000*54
$GPGSA,A,3,14,26,04,12,09,30,27,29,02,,,,2.0,1.1,1.7*36
$GPRMC,134100.000,A,4841.2704,N,01132.3698,E,0.62,37.66,080809,,*30
$GPGGA,134101.000,4841.2707,N,01132.3700,E,1,09,1.1,368.6,M,47.6,M,,0000*53
$GPGSA,A,3,14,26,04,12,09,30,27,29,02,,,,2.0,1.1,1.7*36
$GPGSV,3,1,09,12,81,336,27,30,51,272,29,09,51,136,18,26,43,229,26*7E
$GPGSV,3,2,09,27,40,136,18,14,39,290,25,04,23,075,14,02,22,112,20*7E
$GPGSV,3,3,09,29,14,206,18*43
$GPRMC,134101.000,A,4841.2707,N,01132.3700,E,1.06,17.30,080809,,*30
$GPGGA,134102.000,4841.2706,N,01132.3700,E,1,09,1.1,368.3,M,47.6,M,,0000*54
$GPGSA,A,3,14,26,04,12,09,30,27,29,02,,,,2.0,1.1,1.7*36
$GPRMC,134102.000,A,4841.2706,N,01132.3700,E,0.72,148.68,080809,,*06
$GPGGA,134103.000,4841.2704,N,01132.3701,E,1,09,1.1,367.7,M,47.6,M,,0000*5D
$GPGSA,A,3,14,26,04,12,09,30,27,29,02,,,,2.0,1.1,1.7*36
$GPRMC,134103.000,A,4841.2704,N,01132.3701,E,0.83,176.68,080809,,*07
$GPGGA,134104.000,4841.2706,N,01132.3700,E,1,09,1.1,367.0,M,47.6,M,,0000*5E
$GPGSA,A,3,14,26,04,12,09,30,27,29,02,,,,2.0,1.1,1.7*36
$GPRMC,134104.000,A,4841.2706,N,01132.3700,E,1.60,348.74,080809,,*0D
$GPGGA,134105.000,4841.2709,N,01132.3698,E,1,09,1.1,366.6,M,47.6,M,,0000*57
$GPGSA,A,3,14,26,04,12,09,30,27,29,02,,,,2.0,1.1,1.7*36
$GPRMC,134105.000,A,4841.2709,N,01132.3698,E,0.99,330.89,080809,,*09
$GPGGA,134106.000,4841.2708,N,01132.3697,E,1,09,1.1,365.6,M,47.6,M,,0000*59
$GPGSA,A,3,14,26,04,12,09,30,27,29,02,,,,2.0,1.1,1.7*36
$GPGSV,3,1,09,12,81,336,27,30,51,272,29,09,51,136,16,26,43,229,25*73
$GPGSV,3,2,09,27,40,136,18,14,39,290,26,04,23,075,13,02,22,112,19*70
$GPGSV,3,3,09,29,14,206,19*42
$GPRMC,134106.000,A,4841.2708,N,01132.3697,E,0.73,203.29,080809,,*0B
$GPGGA,134107.000,4841.2710,N,01132.3696,E,1,09,1.1,365.2,M,47.6,M,,0000*54
$GPGSA,A,3,14,26,04,12,09,30,27,29,02,,,,2.0,1.1,1.7*36
$GPRMC,134107.000,A,4841.2710,N,01132.3696,E,0.23,125.08,080809,,*03
$GPGGA,134108.000,4841.2709,N,01132.3692,E,1,09,1.1,365.0,M,47.6,M,,0000*55
$GPGSA,A,3,14,26,04,12,09,30,27,29,02,,,,2.0,1.1,1.7*36
$GPRMC,134108.000,A,4841.2709,N,01132.3692,E,1.17,237.70,080809,,*09
$GPGGA,134109.000,4841.2709,N,01132.3689,E,1,09,1.1,364.7,M,47.6,M,,0000*58
$GPGSA,A,3,14,26,04,12,09,30,27,29,02,,,,2.0,1.1,1.7*36
$GPRMC,134109.000,A,4841.2709,N,01132.3689,E,0.65,267.41,080809,,*01
$GPGGA,134110.000,4841.2710,N,01132.3687,E,1,08,1.4,364.3,M,47.6,M,,0000*56
$GPGSA,A,3,14,26,04,12,09,30,27,02,,,,,2.6,1.4,2.3*39
$GPRMC,134110.000,A,4841.2710,N,01132.3687,E,0.51,231.34,080809,,*09
$GPGGA,134111.000,4841.2712,N,01132.3685,E,1,08,1.4,364.1,M,47.6,M,,0000*55
$GPGSA,A,3,14,26,04,12,09,30,27,02,,,,,2.6,1.4,2.3*39
$GPGSV,3,1,09,12,81,336,27,30,51,272,30,09,51,136,16,26,43,229,26*78
$GPGSV,3,2,09,27,40,136,18,14,39,290,25,04,23,075,13,02,22,112,18*72
$GPGSV,3,3,09,29,14,206,08*42
$GPRMC,134111.000,A,4841.2712,N,01132.3685,E,0.55,288.14,080809,,*0C
$GPGGA,134112.000,4841.2712,N,01132.3685,E,1,08,1.4,363.6,M,47.6,M,,0000*56
$GPGSA,A,3,14,26,04,12,09,30,27,02,,,,,2.6,1.4,2.3*39
$GPRMC,134112.000,A,4841.2712,N,01132.3685,E,0.90,159.04,080809,,*08
$GPGGA,134113.000,4841.2712,N,01132.3687,E,1,08,1.4,363.1,M,47.6,M,,0000*52
$GPGSA,A,3,14,26,04,12,09,30,27,02,,,,,2.6,1.4,2.3*39
$GPRMC,134113.000,A,4841.2712,N,01132.3687,E,0.87,137.08,080809,,*09
$GPGGA,134114.000,4841.2709,N,01132.3688,E,1,08,1.4,363.2,M,47.6,M,,0000*53
$GPGSA,A,3,14,26,04,12,09,30,27,02,,,,,2.6,1.4,2.3*39
$GPRMC,134114.000,A,4841.2709,N,01132.3688,E,1.42,183.41,080809,,*01
$GPGGA,134115.000,4841.2705,N,01132.3687,E,1,08,1.4,363.6,M,47.6,M,,0000*55
$GPGSA,A,3,14,26,04,12,09,30,27,02,,,,,2.6,1.4,2.3*39
$GPRMC,134115.000,A,4841.2705,N,01132.3687,E,1.20,186.59,080809,,*0B
$GPGGA,134116.000,4841.2705,N,01132.3682,E,1,08,1.4,363.9,M,47.6,M,,0000*5C
$GPGSA,A,3,14,26,04,12,09,30,27,02,,,,,2.6,1.4,2.3*39
$GPGSV,3,1,09,12,81,336,27,30,51,272,23,09,51,136,16,26,43,229,24*78
$GPGSV,3,2,09,27,40,136,17,14,39,290,19,04,23,075,12,02,22,112,18*73
$GPGSV,3,3,09,29,14,206,*4A
$GPRMC,134116.000,A,4841.2705,N,01132.3682,E,0.94,286.25,080809,,*0B
$GPGGA,134117.000,4841.2706,N,01132.3678,E,1,07,1.4,363.9,M,47.6,M,,0000*54
$GPGSA,A,3,14,26,04,12,30,27,02,,,,,,2.9,1.4,2.5*39
$GPRMC,134117.000,A,4841.2706,N,01132.3678,E,0.41,261.07,080809,,*0D
