$GPGSV,3,1,09,12,81,005,19,30,55,275,20,09,47,138,23,14,40,285,23*7A
$GPGSV,3,2,09,26,40,226,20,27,36,138,12,02,25,108,,04,24,071,*74
$GPGSV,3,3,09,29,17,207,16*4F
$GPRMC,135101.000,A,4841.2664,N,01132.3634,E,1.29,45.37,080809,,*3E
$GPGGA,135102.000,4841.2665,N,01132.3635,E,1,05,2.7,393.2,M,47.6,M,,0000*5A
$GPGSA,A,3,14,30,26,12,09,,,,,,,,6.2,2.7,5.6*38
$GPRMC,135102.000,A,4841.2665,N,01132.3635,E,0.78,47.34,080809,,*39
$GPGGA,135103.000,4841.2665,N,01132.3636,E,1,05,2.7,394.3,M,47.6,M,,0000*5E
$GPGSA,A,3,14,30,26,12,09,,,,,,,,6.2,2.7,5.6*38
$GPRMC,135103.000,A,4841.2665,N,01132.3636,E,0.37,190.12,080809,,*0F
$GPGGA,135104.000,4841.2664,N,01132.3634,E,1,05,2.7,394.2,M,47.6,M,,0000*5B
$GPGSA,A,3,14,30,26,12,09,,,,,,,,6.2,2.7,5.6*38
$GPRMC,135104.000,A,4841.2664,N,01132.3634,E,1.10,201.77,080809,,*07
$GPGGA,135105.000,4841.2667,N,01132.3641,E,1,05,2.7,393.1,M,47.6,M,,0000*5F
$GPGSA,A,3,14,30,26,12,09,,,,,,,,6.2,2.7,5.6*38
$GPRMC,135105.000,A,4841.2667,N,01132.3641,E,1.24,163.53,080809,,*01
$GPGGA,135106.000,4841.2667,N,01132.3644,E,1,05,2.7,393.2,M,47.6,M,,0000*5A
$GPGSA,A,3,14,30,26,12,09,,,,,,,,6.2,2.7,5.6*38
$GPGSV,3,1,09,12,81,005,19,30,55,275,20,09,47,138,23,14,40,285,23*7A
$GPGSV,3,2,09,26,40,226,19,27,36,138,12,02,25,108,,04,24,071,*7E
$GPGSV,3,3,09,29,17,207,16*4F
$GPRMC,135106.000,A,4841.2667,N,01132.3644,E,1.07,187.63,080809,,*0F
$GPGGA,135107.000,4841.2667,N,01132.3639,E,1,05,2.7,395.0,M,47.6,M,,0000*55
$GPGSA,A,3,14,30,26,12,09,,,,,,,,6.2,2.7,5.6*38
$GPRMC,135107.000,A,4841.2667,N,01132.3639,E,1.35,331.18,080809,,*06
$GPGGA,135108.000,4841.2668,N,01132.3641,E,1,05,2.7,393.0,M,47.6,M,,0000*5C
$GPGSA,A,3,14,30,26,12,09,,,,,,,,6.2,2.7,5.6*38
$GPRMC,135108.000,A,4841.2668,N,01132.3641,E,0.27,253.91,080809,,*0F
$GPGGA,135109.000,4841.2659,N,01132.3632,E,1,06,2.4,394.5,M,47.6,M,,0000*59
$GPGSA,A,3,14,30,27,26,12,09,,,,,,,5.0,2.4,4.4*3C
$GPRMC,135109.000,A,4841.2659,N,01132.3632,E,1.18,191.50,080809,,*05
$GPGGA,135110.000,4841.2654,N,01132.3631,E,1,05,2.7,394.4,M,47.6,M,,0000*5E
$GPGSA,A,3,14,30,26,12,09,,,,,,,,6.2,2.7,5.6*38
$GPRMC,135110.000,A,4841.2654,N,01132.3631,E,0.87,203.44,080809,,*09
$GPGGA,135111.000,4841.2649,N,01132.3633,E,1,06,2.7,392.4,M,47.6,M,,0000*54
$GPGSA,A,3,14,30,29,26,12,09,,,,,,,5.2,2.7,4.5*32
$GPGSV,3,1,09,12,81,005,20,30,55,275,19,09,47,138,23,14,40,285,24*7D
$GPGSV,3,2,09,26,40,226,19,27,36,138,12,02,25,108,,04,24,071,*7E
$GPGSV,3,3,09,29,17,207,19*40
$GPRMC,135111.000,A,4841.2649,N,01132.3633,E,1.63,102.46,080809,,*0D
$GPGGA,135112.000,4841.2641,N,01132.3635,E,1,07,2.4,395.0,M,47.6,M,,0000*58
$GPGSA,A,3,14,30,29,27,26,12,09,,,,,,4.6,2.4,4.0*34
$GPRMC,135112.000,A,4841.2641,N,01132.3635,E,1.31,142.32,080809,,*00
$GPGGA,135113.000,4841.2635,N,01132.3635,E,1,07,2.4,394.2,M,47.6,M,,0000*59
$GPGSA,A,3,14,30,29,27,26,12,09,,,,,,4.6,2.4,4.0*34
$GPRMC,135113.000,A,4841.2635,N,01132.3635,E,1.74,176.89,080809,,*04
$GPGGA,135114.000,4841.2628,N,01132.3638,E,1,07,2.4,391.6,M,47.6,M,,0000*5E
$GPGSA,A,3,14,30,29,27,26,12,09,,,,,,4.6,2.4,4.0*34
$GPRMC,135114.000,A,4841.2628,N,01132.3638,E,2.74,186.73,080809,,*0B
$GPGGA,135115.000,4841.2627,N,01132.3645,E,1,07,2.4,387.4,M,47.6,M,,0000*5F
$GPGSA,A,3,14,30,29,27,26,12,09,,,,,,4.6,2.4,4.0*34
$GPRMC,135115.000,A,4841.2627,N,01132.3645,E,2.20,187.87,080809,,*04
$GPGGA,135116.000,4841.2632,N,01132.3660,E,1,07,2.4,381.6,M,47.6,M,,0000*5B
$GPGSA,A,3,14,30,29,27,26,12,09,,,,,,4.6,2.4,4.0*34
$GPGSV,3,1,09,12,81,005,20,30,55,275,19,09,47,138,24,14,40,285,24*7A
$GPGSV,3,2,09,26,40,226,18,27,36,138,13,02,25,108,,04,24,071,*7E
$GPGSV,3,3,09,29,17,207,19*40
$GPRMC,135116.000,A,4841.2632,N,01132.3660,E,1.51,210.44,080809,,*03
$GPGGA,135117.000,4841.2628,N,01132.3658,E,1,07,2.4,380.6,M,47.6,M,,0000*5B
$GPGSA,A,3,14,30,29,27,26,12,09,,,,,,4.6,2.4,4.0*34
$GPRMC,135117.000,A,4841.2628,N,01132.3658,E,0.45,222.90,080809,,*0E
$GPGGA,135118.000,4841.2626,N,01132.3650,E,1,07,2.4,381.0,M,47.6,M,,0000*55
$GPGSA,A,3,14,30,29,27,26,12,09,,,,,,4.6,2.4,4.0*34
$GPRMC,135118.000,A,4841.2626,N,01132.3650,E,0.87,302.92,080809,,*08
$GPGGA,135119.000,4841.2628,N,01132.3646,E,1,07,2.4,380.8,M,47.6,M,,0000*54
$GPGSA,A,3,14,30,29,27,26,12,09,,,,,,4.6,2.4,4.0*34
$GPRMC,135119.000,A,4841.2628,N,01132.3646,E,1.43,267.65,080809,,*03
$GPGGA,135120.000,4841.2629,N,01132.3642,E,1,07,2.4,380.5,M,47.6,M,,0000*56
$GPGSA,A,3,14,30,29,27,26,12,09,,,,,,4.6,2.4,4.0*34
$GPRMC,135120.000,A,4841.2629,N,01132.3642,E,0.42,220.50,080809,,*09
$GPGGA,135121.000,4841.2629,N,01132.3638,E,1,07,2.4,379.1,M,47.6,M,,0000*58
$GPGSA,A,3,14,30,29,27,26,12,09,,,,,,4.6,2.4,4.0*34
$GPGSV,3,1,09,12,81,005,20,30,55,275,20,09,47,138,24,14,40,285,24*70
$GPGSV,3,2,09,26,40,226,18,27,36,138,14,02,25,108,,04,24,071,09*70
$GPGSV,3,3,09,29,17,207,19*40
$GPRMC,135121.000,A,4841.2629,N,01132.3638,E,1.18,240.47,080809,,*0B
$GPGGA,135122.000,4841.2628,N,01132.3632,E,1,07,2.4,379.3,M,47.6,M,,0000*52
$GPGSA,A,3,14,30,29,27,26,12,09,,,,,,4.6,2.4,4.0*34
$GPRMC,135122.000,A,4841.2628,N,01132.3632,E,1.93,268.75,080809,,*0B
$GPGGA,135123.000,4841.2630,N,01132.3622,E,1,07,2.4,379.5,M,47.6,M,,0000*5D
$GPGSA,A,3,14,30,29,27,26,12,09,,,,,,4.6,2.4,4.0*34
$GPRMC,135123.000,A,4841.2630,N,01132.3622,E,1.26,266.70,080809,,*07
$GPGGA,135124.000,4841.2627,N,01132.3611,E,1,07,2.4,379.1,M,47.6,M,,0000*58
$GPGSA,A,3,14,30,29,27,26,12,09,,,,,,4.6,2.4,4.0*34
$GPRMC,135124.000,A,4841.2627,N,01132.3611,E,1.76,260.10,080809,,*03
$GPGGA,135125.000,4841.2628,N,01132.3606,E,1,06,3.6,379.2,M,47.6,M,,0000*51
$GPGSA,A,3,14,30,29,27,12,09,,,,,,,6.6,3.6,5.5*35
$GPRMC,135125.000,A,4841.2628,N,01132.3606,E,1.63,283.17,080809,,*05
$GPGGA,135126.000,4841.2628,N,01132.3600,E,1,07,2.4,378.1,M,47.6,M,,0000*54
$GPGSA,A,3,14,30,29,27,26,12,09,,,,,,4.6,2.4,4.0*34
$GPGSV,3,1,09,12,81,005,19,30,55,275,21,09,47,138,24,14,40,285,24*7B
$GPGSV,3,2,09,26,40,226,18,27,36,138,13,02,25,108,,04,24,071,07*79
$GPGSV,3,3,09,29,17,207,19*40
$GPRMC,135126.000,A,4841.2628,N,01132.3600,E,1.52,256.83,080809,,*07
$GPGGA,135127.000,4841.2621,N,01132.3593,E,1,07,2.4,380.3,M,47.6,M,,0000*50
$GPGSA,A,3,14,30,29,27,26,12,09,,,,,,4.6,2.4,4.0*34
$GPRMC,135127.000,A,4841.2621,N,01132.3593,E,0.86,175.88,080809,,*07
$GPGGA,135128.000,4841.2616,N,01132.3588,E,1,07,2.4,382.5,M,47.6,M,,0000*55
$GPGSA,A,3,14,30,29,27,26,12,09,,,,,,4.6,2.4,4.0*34
$GPRMC,135128.000,A,4841.2616,N,01132.3588,E,0.45,316.02,080809,,*0C
$GPGGA,135129.000,4841.2616,N,01132.3587,E,1,07,2.4,383.1,M,47.6,M,,0000*5E
$GPGSA,A,3,14,30,29,27,26,12,09,,,,,,4.6,2.4,4.0*34
$GPRMC,135129.000,A,4841.2616,N,01132.3587,E,0.83,25.04,080809,,*3D
$GPGGA,135130.000,4841.2615,N,01132.3586,E,1,07,2.4,384.2,M,47.6,M,,0000*50
$GPGSA,A,3,14,30,29,27,26,12,09,,,,,,4.6,2.4,4.0*34
$GPRMC,135130.000,A,4841.2615,N,01132.3586,E,0.82,10.13,080809,,*36
$GPGGA,135131.000,4841.2619,N,01132.3592,E,1,07,2.4,383.2,M,47.6,M,,0000*5F
$GPGSA,A,3,14,30,29,27,26,12,09,,,,,,4.6,2.4,4.0*34
$GPGSV,3,1,09,12,81,005,19,30,55,275,21,09,47,138,24,14,40,285,23*7C
$GPGSV,3,2,09,26,40,226,18,27,36,138,14,02,25,108,13,04,24,071,*7B
$GPGSV,3,3,09,29,17,207,19*40
$GPRMC,135131.000,A,4841.2619,N,01132.3592,E,1.40,15.90,080809,,*3F
$GPGGA,135132.000,4841.2619,N,01132.3599,E,1,07,2.4,381.3,M,47.6,M,,0000*54
$GPGSA,A,3,14,30,29,27,26,12,09,,,,,,4.6,2.4,4.0*34
$GPRMC,135132.000,A,4841.2619,N,01132.3599,E,1.11,91.08,080809,,*3E
$GPGGA,135133.000,4841.2623,N,01132.3611,E,1,07,2.4,378.3,M,47.6,M,,0000*59
$GPGSA,A,3,14,30,29,27,26,12,09,,,,,,4.6,2.4,4.0*34
$GPRMC,135133.000,A,4841.2623,N,01132.3611,E,1.41,108.23,080809,,*08
$GPGGA,135134.000,4841.2630,N,01132.3627,E,1,07,2.4,375.8,M,47.6,M,,0000*5F
$GPGSA,A,3,14,30,29,27,26,12,09,,,,,,4.6,2.4,4.0*34
$GPRMC,135134.000,A,4841.2630,N,01132.3627,E,1.26,122.55,080809,,*00
$GPGGA,135135.000,4841.2643,N,01132.3641,E,1,07,2.4,372.5,M,47.6,M,,0000*50
$GPGSA,A,3,14,30,29,27,26,12,09,,,,,,4.6,2.4,4.0*34
$GPRMC,135135.000,A,4841.2643,N,01132.3641,E,1.66,62.99,080809,,*34
$GPGGA,135136.000,4841.2653,N,01132.3648,E,1,07,2.4,370.0,M,47.6,M,,0000*5C
$GPGSA,A,3,14,30,29,27,26,12,09,,,,,,4.6,2.4,4.0*34
$GPGSV,3,1,09,12,81,005,19,30,55,275,21,09,47,138,24,14,40,285,22*7D
$GPGSV,3,2,09,26,40,226,18,27,36,138,14,02,25,108,08,04,24,071,13*73
$GPGSV,3,3,09,29,17,207,19*40
$GPRMC,135136.000,A,4841.2653,N,01132.3648,E,1.83,6.76,080809,,*07
$GPGGA,135137.000,4841.2662,N,01132.3653,E,1,07,2.4,369.0,M,47.6,M,,0000*5D
$GPGSA,A,3,14,30,29,27,26,12,09,,,,,,4.6,2.4,4.0*34
$GPRMC,135137.000,A,4841.2662,N,01132.3653,E,2.82,34.41,080809,,*39
$GPGGA,135138.000,4841.2671,N,01132.3665,E,1,07,2.4,366.6,M,47.6,M,,0000*5C
$GPGSA,A,3,14,30,29,27,26,12,09,,,,,,4.6,2.4,4.0*34
$GPRMC,135138.000,A,4841.2671,N,01132.3665,E,1.56,47.87,080809,,*35
$GPGGA,135139.000,4841.2684,N,01132.3682,E,1,08,1.1,362.3,M,47.6,M,,0000*56
$GPGSA,A,3,14,30,29,27,04,26,12,09,,,,,2.2,1.1,1.9*38
$GPRMC,135139.000,A,4841.2684,N,01132.3682,E,1.14,37.57,080809,,*3B
$GPGGA,135140.000,4841.2692,N,01132.3687,E,1,07,1.3,359.7,M,47.6,M,,0000*5B
$GPGSA,A,3,14,30,29,04,26,12,09,,,,,,2.3,1.3,2.0*34
$GPRMC,135140.000,A,4841.2692,N,01132.3687,E,0.98,344.24,080809,,*01
$GPGGA,135141.000,4841.2692,N,01132.3691,E,1,09,1.1,357.9,M,47.6,M,,0000*51
$GPGSA,A,3,14,30,29,27,04,26,12,02,09,,,,2.2,1.1,1.9*3A
$GPGSV,3,1,09,12,81,005,19,30,55,275,21,09,47,138,24,14,40,285,22*7D
$GPGSV,3,2,09,26,40,226,19,27,36,138,15,02,25,108,15,04,24,071,14*78
$GPGSV,3,3,09,29,17,207,19*40
$GPRMC,135141.000,A,4841.2692,N,01132.3691,E,0.29,283.12,080809,,*02
$GPGGA,135142.000,4841.2694,N,01132.3696,E,1,08,1.2,354.7,M,47.6,M,,0000*5C
$GPGSA,A,3,14,30,29,04,26,12,02,09,,,,,2.3,1.2,1.9*3D
$GPRMC,135142.000,A,4841.2694,N,01132.3696,E,0.39,173.02,080809,,*0C
$GPGGA,135143.000,4841.2695,N,01132.3706,E,1,08,1.2,352.8,M,47.6,M,,0000*5D
$GPGSA,A,3,14,30,29,04,26,12,02,09,,,,,2.3,1.2,1.9*3D
$GPRMC,135143.000,A,4841.2695,N,01132.3706,E,3.06,86.66,080809,,*32
$GPGGA,135144.000,4841.2700,N,01132.3714,E,1,07,1.6,352.2,M,47.6,M,,0000*55
$GPGSA,A,3,14,30,29,26,12,02,09,,,,,,2.9,1.6,2.5*38
$GPRMC,135144.000,A,4841.2700,N,01132.3714,E,1.95,42.85,080809,,*36
$GPGGA,135145.000,4841.2706,N,01132.3710,E,1,08,1.2,351.3,M,47.6,M,,0000*5F
$GPGSA,A,3,14,30,29,04,26,12,02,09,,,,,2.3,1.2,1.9*3D
$GPRMC,135145.000,A,4841.2706,N,01132.3710,E,2.11,308.10,080809,,*0B
$GPGGA,135146.000,4841.2713,N,01132.3709,E,1,07,1.3,348.8,M,47.6,M,,0000*5D
$GPGSA,A,3,14,30,29,04,26,12,09,,,,,,2.3,1.3,2.0*34
$GPGSV,3,1,09,12,81,005,19,30,55,275,21,09,47,138,16,14,40,285,20*7E
$GPGSV,3,2,09,26,40,226,19,27,36,138,13,02,25,108,14,04,24,071,13*78
$GPGSV,3,3,09,29,17,207,19*40
$GPRMC,135146.000,A,4841.2713,N,01132.3709,E,0.58,344.70,080809,,*05
$GPGGA,135147.000,4841.2718,N,01132.3711,E,1,07,1.3,346.7,M,47.6,M,,0000*5F
$GPGSA,A,3,14,30,29,04,26,12,09,,,,,,2.3,1.3,2.0*34
$GPRMC,135147.000,A,4841.2718,N,01132.3711,E,2.18,6.36,080809,,*07
$GPGGA,135148.000,4841.2725,N,01132.3715,E,1,08,1.2,345.0,M,47.6,M,,0000*50
$GPGSA,A,3,14,30,29,04,26,12,02,09,,,,,2.3,1.2,1.9*3D
$GPRMC,135148.000,A,4841.2725,N,01132.3715,E,2.52,24.81,080809,,*30
$GPGGA,135149.000,4841.2728,N,01132.3716,E,1,08,1.2,343.6,M,47.6,M,,0000*5F
$GPGSA,A,3,14,30,29,04,26,12,02,09,,,,,2.3,1.2,1.9*3D
$GPRMC,135149.000,A,4841.2728,N,01132.3716,E,1.13,24.49,080809,,*3D
$GPGGA,135150.000,4841.2728,N,01132.3715,E,1,07,1.5,342.9,M,47.6,M,,0000*52
$GPGSA,A,3,30,29,04,26,12,02,09,,,,,,2.6,1.5,2.1*31
$GPRMC,135150.000,A,4841.2728,N,01132.3715,E,0.62,330.26,080809,,*0E
$GPGGA,135151.000,4841.2726,N,01132.3713,E,1,08,1.2,343.8,M,47.6,M,,0000*53
$GPGSA,A,3,14,30,29,04,26,12,02,09,,,,,2.3,1.2,1.9*3D
$GPGSV,3,1,09,12,81,005,19,30,55,275,21,09,47,138,24,14,40,285,20*7F
$GPGSV,3,2,09,26,40,226,21,27,36,138,09,02,25,108,15,04,24,071,20*79
$GPGSV,3,3,09,29,17,207,18*41
$GPRMC,135151.000,A,4841.2726,N,01132.3713,E,0.62,22.07,080809,,*34
$GPGGA,135152.000,4841.2725,N,01132.3713,E,1,08,1.2,345.8,M,47.6,M,,0000*55
$GPGSA,A,3,14,30,29,04,26,12,02,09,,,,,2.3,1.2,1.9*3D
$GPRMC,135152.000,A,4841.2725,N,01132.3713,E,1.34,49.29,080809,,*37
$GPGGA,135153.000,4841.2725,N,01132.3715,E,1,08,1.2,347.0,M,47.6,M,,0000*58
$GPGSA,A,3,14,30,29,04,26,12,02,09,,,,,2.3,1.2,1.9*3D
$GPRMC,135153.000,A,4841.2725,N,01132.3715,E,1.17,52.06,080809,,*36
$GPGGA,135154.000,4841.2723,N,01132.3717,E,1,08,1.2,348.2,M,47.6,M,,0000*56
$GPGSA,A,3,14,30,29,04,26,12,02,09,,,,,2.3,1.2,1.9*3D
$GPRMC,135154.000,A,4841.2723,N,01132.3717,E,0.70,78.70,080809,,*3C
$GPGGA,135155.000,4841.2724,N,01132.3718,E,1,08,1.2,349.4,M,47.6,M,,0000*58
$GPGSA,A,3,14,30,29,04,26,12,02,09,,,,,2.3,1.2,1.9*3D
$GPRMC,135155.000,A,4841.2724,N,01132.3718,E,1.35,29.48,080809,,*3A
$GPGGA,135156.000,4841.2723,N,01132.3714,E,1,08,1.2,351.7,M,47.6,M,,0000*5A
$GPGSA,A,3,14,30,29,04,26,12,02,09,,,,,2.3,1.2,1.9*3D
$GPGSV,3,1,09,12,81,005,20,30,55,275,22,09,47,138,24,14,40,285,20*76
$GPGSV,3,2,09,26,40,226,19,27,36,138,17,02,25,108,17,04,24,071,17*7B
$GPGSV,3,3,09,29,17,207,17*4E
$GPRMC,135156.000,A,4841.2723,N,01132.3714,E,0.28,9.08,080809,,*09
$GPGGA,135157.000,4841.2720,N,01132.3712,E,1,08,1.2,354.1,M,47.6,M,,0000*5D
$GPGSA,A,3,14,30,29,04,26,12,02,09,,,,,2.3,1.2,1.9*3D
$GPRMC,135157.000,A,4841.2720,N,01132.3712,E,1.02,340.74,080809,,*01
$GPGGA,135158.000,4841.2720,N,01132.3710,E,1,08,1.2,356.0,M,47.6,M,,0000*53
$GPGSA,A,3,14,30,29,04,26,12,02,09,,,,,2.3,1.2,1.9*3D
$GPRMC,135158.000,A,4841.2720,N,01132.3710,E,1.17,348.60,080809,,*05
$GPGGA,135159.000,4841.2721,N,01132.3706,E,1,08,1.2,356.8,M,47.6,M,,0000*5C
$GPGSA,A,3,14,30,29,04,26,12,02,09,,,,,2.3,1.2,1.9*3D
$GPRMC,135159.000,A,4841.2721,N,01132.3706,E,1.05,8.45,080809,,*01
$GPGGA,135200.000,4841.2725,N,01132.3703,E,1,08,1.2,356.6,M,47.6,M,,0000*5C
$GPGSA,A,3,14,30,29,04,26,12,02,09,,,,,2.3,1.2,1.9*3D
$GPRMC,135200.000,A,4841.2725,N,01132.3703,E,1.70,7.55,080809,,*03
$GPGGA,135201.000,4841.2729,N,01132.3695,E,1,09,1.1,357.3,M,47.6,M,,0000*59
$GPGSA,A,3,14,30,29,27,04,26,12,02,09,,,,2.2,1.1,1.9*3A
$GPGSV,3,1,09,12,81,005,25,30,55,275,21,09,47,138,25,14,40,285,21*70
$GPGSV,3,2,09,26,40,226,18,27,36,138,17,02,25,108,23,04,24,071,17*7D
$GPGSV,3,3,09,29,17,207,17*4E
$GPRMC,135201.000,A,4841.2729,N,01132.3695,E,1.09,343.04,080809,,*09
$GPGGA,135202.000,4841.2730,N,01132.3690,E,1,09,1.1,356.9,M,47.6,M,,0000*5C
$GPGSA,A,3,14,30,29,27,04,26,12,02,09,,,,2.2,1.1,1.9*3A
$GPRMC,135202.000,A,4841.2730,N,01132.3690,E,0.50,334.54,080809,,*0F
$GPGGA,135203.000,4841.2726,N,01132.3687,E,1,09,1.1,356.9,M,47.6,M,,0000*5C
$GPGSA,A,3,14,30,29,27,04,26,12,02,09,,,,2.2,1.1,1.9*3A
$GPRMC,135203.000,A,4841.2726,N,01132.3687,E,1.12,163.46,080809,,*0B
$GPGGA,135204.000,4841.2721,N,01132.3687,E,1,08,1.2,356.5,M,47.6,M,,0000*52
$GPGSA,A,3,14,30,29,27,04,12,02,09,,,,,2.2,1.2,1.9*3D
$GPRMC,135204.000,A,4841.2721,N,01132.3687,E,0.24,177.29,080809,,*03
$GPGGA,135205.000,4841.2716,N,01132.3689,E,1,09,1.1,356.7,M,47.6,M,,0000*59
$GPGSA,A,3,14,30,29,27,04,26,12,02,09,,,,2.2,1.1,1.9*3A
$GPRMC,135205.000,A,4841.2716,N,01132.3689,E,0.99,109.50,080809,,*09
$GPGGA,135206.000,4841.2708,N,01132.3694,E,1,09,1.1,357.6,M,47.6,M,,0000*59
$GPGSA,A,3,14,30,29,27,04,26,12,02,09,,,,2.2,1.1,1.9*3A
$GPGSV,3,1,09,12,81,005,24,30,55,275,21,09,47,138,25,14,40,285,20*70
$GPGSV,3,2,09,26,40,226,16,27,36,138,18,02,25,108,22,04,24,071,17*7D
$GPGSV,3,3,09,29,17,207,16*4F
$GPRMC,135206.000,A,4841.2708,N,01132.3694,E,0.51,165.58,080809,,*0F
$GPGGA,135207.000,4841.2701,N,01132.3693,E,1,09,1.1,358.3,M,47.6,M,,0000*5C
$GPGSA,A,3,14,30,29,27,04,26,12,02,09,,,,2.2,1.1,1.9*3A
$GPRMC,135207.000,A,4841.2701,N,01132.3693,E,1.32,255.91,080809,,*01
$GPGGA,135208.000,4841.2692,N,01132.3690,E,1,09,1.1,360.5,M,47.6,M,,0000*56
$GPGSA,A,3,14,30,29,27,04,26,12,02,09,,,,2.2,1.1,1.9*3A
$GPRMC,135208.000,A,4841.2692,N,01132.3690,E,0.06,168.67,080809,,*04
$GPGGA,135209.000,4841.2691,N,01132.3688,E,1,09,1.1,362.1,M,47.6,M,,0000*5B
$GPGSA,A,3,14,30,29,27,04,26,12,02,09,,,,2.2,1.1,1.9*3A
$GPRMC,135209.000,A,4841.2691,N,01132.3688,E,0.25,357.47,080809,,*02
$GPGGA,135210.000,4841.2690,N,01132.3690,E,1,09,1.1,362.8,M,47.6,M,,0000*52
$GPGSA,A,3,14,30,29,27,04,26,12,02,09,,,,2.2,1.1,1.9*3A
$GPRMC,135210.000,A,4841.2690,N,01132.3690,E,1.71,38.86,080809,,*35
$GPGGA,135211.000,4841.2692,N,01132.3693,E,1,09,1.1,362.8,M,47.6,M,,0000*52
$GPGSA,A,3,14,30,29,27,04,26,12,02,09,,,,2.2,1.1,1.9*3A
$GPGSV,3,1,09,12,81,005,24,30,55,275,18,09,47,138,25,14,40,285,19*70
$GPGSV,3,2,09,26,40,226,15,27,36,138,18,02,25,108,23,04,24,071,19*71
$GPGSV,3,3,09,29,17,207,16*4F
$GPRMC,135211.000,A,4841.2692,N,01132.3693,E,0.79,91.61,080809,,*36
$GPGGA,135212.000,4841.2691,N,01132.3693,E,1,09,1.1,363.9,M,47.6,M,,0000*52
$GPGSA,A,3,14,30,29,27,04,26,12,02,09,,,,2.2,1.1,1.9*3A
$GPRMC,135212.000,A,4841.2691,N,01132.3693,E,0.34,237.62,080809,,*02
$GPGGA,135213.000,4841.2690,N,01132.3692,E,1,09,1.1,364.8,M,47.6,M,,0000*55
$GPGSA,A,3,14,30,29,27,04,26,12,02,09,,,,2.2,1.1,1.9*3A
$GPRMC,135213.000,A,4841.2690,N,01132.3692,E,0.84,186.63,080809,,*00
$GPGGA,135214.000,4841.2685,N,01132.3693,E,1,09,1.1,366.1,M,47.6,M,,0000*5C
$GPGSA,A,3,14,30,29,27,04,26,12,02,09,,,,2.2,1.1,1.9*3A
$GPRMC,135214.000,A,4841.2685,N,01132.3693,E,0.79,118.20,080809,,*00
$GPGGA,135215.000,4841.2684,N,01132.3695,E,1,09,1.1,367.5,M,47.6,M,,0000*5F
$GPGSA,A,3,14,30,29,27,04,26,12,02,09,,,,2.2,1.1,1.9*3A
$GPRMC,135215.000,A,4841.2684,N,01132.3695,E,0.76,128.15,080809,,*0C
$GPGGA,135216.000,4841.2683,N,01132.3694,E,1,09,1.1,367.6,M,47.6,M,,0000*59
$GPGSA,A,3,14,30,29,27,04,26,12,02,09,,,,2.2,1.1,1.9*3A
$GPGSV,3,1,09,12,81,005,23,30,55,275,21,09,47,138,25,14,40,285,20*77
$GPGSV,3,2,09,26,40,226,15,27,36,138,19,02,25,108,23,04,24,071,19*70
$GPGSV,3,3,09,29,17,207,16*4F
$GPRMC,135216.000,A,4841.2683,N,01132.3694,E,0.59,158.57,080809,,*05
$GPGGA,135217.000,4841.2680,N,01132.3690,E,1,09,1.1,367.1,M,47.6,M,,0000*58
$GPGSA,A,3,14,30,29,27,04,26,12,02,09,,,,2.2,1.1,1.9*3A
$GPRMC,135217.000,A,4841.2680,N,01132.3690,E,1.78,192.42,080809,,*03
$GPGGA,135218.000,4841.2677,N,01132.3687,E,1,09,1.1,367.5,M,47.6,M,,0000*5D
$GPGSA,A,3,14,30,29,27,04,26,12,02,09,,,,2.2,1.1,1.9*3A
$GPRMC,135218.000,A,4841.2677,N,01132.3687,E,1.07,190.11,080809,,*0E
$GPGGA,135219.000,4841.2678,N,01132.3685,E,1,09,1.1,367.9,M,47.6,M,,0000*5D
$GPGSA,A,3,14,30,29,27,04,26,12,02,09,,,,2.2,1.1,1.9*3A
$GPRMC,135219.000,A,4841.2678,N,01132.3685,E,0.77,316.22,080809,,*08
$GPGGA,135220.000,4841.2680,N,01132.3683,E,1,09,1.1,367.4,M,47.6,M,,0000*5B
$GPGSA,A,3,14,30,29,27,04,26,12,02,09,,,,2.2,1.1,1.9*3A
$GPRMC,135220.000,A,4841.2680,N,01132.3683,E,0.78,160.73,080809,,*0B
$GPGGA,135221.000,4841.2680,N,01132.3683,E,1,09,1.1,367.4,M,47.6,M,,0000*5A
$GPGSA,A,3,14,30,29,27,04,26,12,02,09,,,,2.2,1.1,1.9*3A
$GPGSV,3,1,09,12,81,005,23,30,55,275,21,09,47,138,25,14,40,285,21*76
$GPGSV,3,2,09,26,40,226,16,27,36,138,18,02,25,108,23,04,24,071,19*72
$GPGSV,3,3,09,29,17,207,16*4F
$GPRMC,135221.000,A,4841.2680,N,01132.3683,E,0.36,179.23,080809,,*0D
$GPGGA,135222.000,4841.2679,N,01132.3681,E,1,09,1.1,368.0,M,47.6,M,,0000*56
$GPGSA,A,3,14,30,29,27,04,26,12,02,09,,,,2.2,1.1,1.9*3A
$GPRMC,135222.000,A,4841.2679,N,01132.3681,E,0.69,119.06,080809,,*01
$GPGGA,135223.000,4841.2678,N,01132.3679,E,1,09,1.1,368.0,M,47.6,M,,0000*51
$GPGSA,A,3,14,30,29,27,04,26,12,02,09,,,,2.2,1.1,1.9*3A
$GPRMC,135223.000,A,4841.2678,N,01132.3679,E,0.74,16.61,080809,,*35
$GPGGA,135224.000,4841.2679,N,01132.3678,E,1,09,1.1,367.3,M,47.6,M,,0000*5A
$GPGSA,A,3,14,30,29,27,04,26,12,02,09,,,,2.2,1.1,1.9*3A
$GPRMC,135224.000,A,4841.2679,N,01132.3678,E,0.40,349.02,080809,,*09
$GPGGA,135225.000,4841.2682,N,01132.3680,E,1,09,1.1,366.0,M,47.6,M,,0000*5A
$GPGSA,A,3,14,30,29,27,04,26,12,02,09,,,,2.2,1.1,1.9*3A
$GPRMC,135225.000,A,4841.2682,N,01132.3680,E,1.00,10.66,080809,,*33
$GPGGA,135226.000,4841.2682,N,01132.3685,E,1,09,1.1,365.2,M,47.6,M,,0000*5D
$GPGSA,A,3,14,30,29,27,04,26,12,02,09,,,,2.2,1.1,1.9*3A
$GPGSV,3,1,09,12,81,005,23,30,55,275,21,09,47,138,25,14,40,285,21*76
$GPGSV,3,2,09,26,40,226,15,27,36,138,18,02,25,108,23,04,24,071,19*71
$GPGSV,3,3,09,29,17,207,16*4F
$GPRMC,135226.000,A,4841.2682,N,01132.3685,E,0.94,88.90,080809,,*31
$GPGGA,135227.000,4841.2682,N,01132.3690,E,1,09,1.1,364.6,M,47.6,M,,0000*5D
$GPGSA,A,3,14,30,29,27,04,26,12,02,09,,,,2.2,1.1,1.9*3A
$GPRMC,135227.000,A,4841.2682,N,01132.3690,E,0.40,282.81,080809,,*05
$GPGGA,135228.000,4841.2681,N,01132.3690,E,1,09,1.1,365.0,M,47.6,M,,0000*56
$GPGSA,A,3,14,30,29,27,04,26,12,02,09,,,,2.2,1.1,1.9*3A
$GPRMC,135228.000,A,4841.2681,N,01132.3690,E,0.72,202.69,080809,,*06
$GPGGA,135229.000,4841.2682,N,01132.3689,E,1,09,1.1,365.9,M,47.6,M,,0000*55
$GPGSA,A,3,14,30,29,27,04,26,12,02,09,,,,2.2,1.1,1.9*3A
$GPRMC,135229.000,A,4841.2682,N,01132.3689,E,0.96,28.63,080809,,*36
$GPGGA,135230.000,4841.2686,N,01132.3686,E,1,09,1.1,365.3,M,47.6,M,,0000*5C
$GPGSA,A,3,14,30,29,27,04,26,12,02,09,,,,2.2,1.1,1.9*3A
$GPRMC,135230.000,A,4841.2686,N,01132.3686,E,2.01,337.08,080809,,*09
$GPGGA,135231.000,4841.2693,N,01132.3686,E,1,09,1.1,365.6,M,47.6,M,,0000*5C
$GPGSA,A,3,14,30,29,27,04,26,12,02,09,,,,2.2,1.1,1.9*3A
$GPGSV,3,1,09,12,81,005,23,30,55,275,21,09,47,138,24,14,40,285,21*77
$GPGSV,3,2,09,26,40,226,16,27,36,138,18,02,25,108,23,04,24,071,19*72
$GPGSV,3,3,09,29,17,207,16*4F
$GPRMC,135231.000,A,4841.2693,N,01132.3686,E,1.84,21.98,080809,,*3F
$GPGGA,135232.000,4841.2699,N,01132.3688,E,1,09,1.1,366.7,M,47.6,M,,0000*59
$GPGSA,A,3,14,30,29,27,04,26,12,02,09,,,,2.2,1.1,1.9*3A
$GPRMC,135232.000,A,4841.2699,N,01132.3688,E,2.03,10.34,080809,,*30
$GPGGA,135233.000,4841.2701,N,01132.3685,E,1,09,1.1,365.5,M,47.6,M,,0000*54
$GPGSA,A,3,14,30,29,27,04,26,12,02,09,,,,2.2,1.1,1.9*3A
$GPRMC,135233.000,A,4841.2701,N,01132.3685,E,0.61,219.31,080809,,*04
$GPGGA,135234.000,4841.2696,N,01132.3684,E,1,09,1.1,365.8,M,47.6,M,,0000*50
$GPGSA,A,3,14,30,29,27,04,26,12,02,09,,,,2.2,1.1,1.9*3A
$GPRMC,135234.000,A,4841.2696,N,01132.3684,E,0.93,150.25,080809,,*0B
$GPGGA,135235.000,4841.2696,N,01132.3684,E,1,09,1.1,365.7,M,47.6,M,,0000*5E
$GPGSA,A,3,14,30,29,27,04,26,12,02,09,,,,2.2,1.1,1.9*3A
$GPRMC,135235.000,A,4841.2696,N,01132.3684,E,0.67,193.59,080809,,*05
$GPGGA,135236.000,4841.2690,N,01132.3677,E,1,09,1.1,366.3,M,47.6,M,,0000*50
$GPGSA,A,3,14,30,29,27,04,26,12,02,09,,,,2.2,1.1,1.9*3A
$GPGSV,3,1,09,12,81,005,22,30,55,275,21,09,47,138,24,14,40,285,22*75
$GPGSV,3,2,09,26,40,226,16,27,36,138,18,02,25,108,23,04,24,071,19*72
$GPGSV,3,3,09,29,17,207,15*4C
$GPRMC,135236.000,A,4841.2690,N,01132.3677,E,2.27,235.65,080809,,*0A
$GPGGA,135237.000,4841.2685,N,01132.3668,E,1,09,1.1,365.4,M,47.6,M,,0000*5F
$GPGSA,A,3,14,30,29,27,04,26,12,02,09,,,,2.2,1.1,1.9*3A
$GPRMC,135237.000,A,4841.2685,N,01132.3668,E,1.69,218.16,080809,,*03
$GPGGA,135238.000,4841.2681,N,01132.3664,E,1,09,1.1,365.1,M,47.6,M,,0000*5D
$GPGSA,A,3,14,30,29,27,04,26,12,02,09,,,,2.2,1.1,1.9*3A
$GPRMC,135238.000,A,4841.2681,N,01132.3664,E,0.79,205.85,080809,,*02
$GPGGA,135239.000,4841.2676,N,01132.3659,E,1,09,1.1,364.8,M,47.6,M,,0000*52
$GPGSA,A,3,14,30,29,27,04,26,12,02,09,,,,2.2,1.1,1.9*3A
$GPRMC,135239.000,A,4841.2676,N,01132.3659,E,1.16,250.08,080809,,*08
$GPGGA,135240.000,4841.2672,N,01132.3654,E,1,09,1.1,365.2,M,47.6,M,,0000*5E
$GPGSA,A,3,14,30,29,27,04,26,12,02,09,,,,2.2,1.1,1.9*3A
$GPRMC,135240.000,A,4841.2672,N,01132.3654,E,1.34,214.03,080809,,*04
$GPGGA,135241.000,4841.2671,N,01132.3649,E,1,09,1.1,364.0,M,47.6,M,,0000*53
$GPGSA,A,3,14,30,29,27,04,26,12,02,09,,,,2.2,1.1,1.9*3A
$GPGSV,3,1,09,12,81,005,22,30,55,275,22,09,47,138,23,14,40,285,21*72
$GPGSV,3,2,09,26,40,226,14,27,36,138,18,02,25,108,23,04,24,071,19*70
$GPGSV,3,3,09,29,17,207,16*4F
$GPRMC,135241.000,A,4841.2671,N,01132.3649,E,0.83,171.67,080809,,*05
$GPGGA,135242.000,4841.2671,N,01132.3649,E,1,09,1.1,364.4,M,47.6,M,,0000*54
$GPGSA,A,3,14,30,29,27,04,26,12,02,09,,,,2.2,1.1,1.9*3A
$GPRMC,135242.000,A,4841.2671,N,01132.3649,E,0.93,202.65,080809,,*02
$GPGGA,135243.000,4841.2672,N,01132.3648,E,1,09,1.1,364.9,M,47.6,M,,0000*5A
$GPGSA,A,3,14,30,29,27,04,26,12,02,09,,,,2.2,1.1,1.9*3A
$GPRMC,135243.000,A,4841.2672,N,01132.3648,E,1.55,276.99,080809,,*0A
$GPGGA,135244.000,4841.2673,N,01132.3644,E,1,09,1.1,364.7,M,47.6,M,,0000*5E
$GPGSA,A,3,14,30,29,27,04,26,12,02,09,,,,2.2,1.1,1.9*3A
$GPRMC,135244.000,A,4841.2673,N,01132.3644,E,1.75,267.24,080809,,*04
$GPGGA,135245.000,4841.2674,N,01132.3640,E,1,09,1.1,365.0,M,47.6,M,,0000*5A
$GPGSA,A,3,14,30,29,27,04,26,12,02,09,,,,2.2,1.1,1.9*3A
$GPRMC,135245.000,A,4841.2674,N,01132.3640,E,1.89,271.88,080809,,*04
$GPGGA,135246.000,4841.2670,N,01132.3643,E,1,08,1.2,366.8,M,47.6,M,,0000*57
$GPGSA,A,3,14,30,29,27,04,12,02,09,,,,,2.2,1.2,1.9*3D
$GPGSV,3,1,09,12,80,014,21,30,56,276,22,09,45,139,19,14,40,283,22*7F
$GPGSV,3,2,09,26,38,225,13,27,34,138,17,02,26,107,22,04,24,070,18*7B
$GPGSV,3,3,09,29,19,207,17*40
$GPRMC,135246.000,A,4841.2670,N,01132.3643,E,0.21,128.59,080809,,*00
$GPGGA,135247.000,4841.2662,N,01132.3646,E,1,09,1.1,368.8,M,47.6,M,,0000*5C
$GPGSA,A,3,14,30,29,27,04,26,12,02,09,,,,2.2,1.1,1.9*3A
$GPRMC,135247.000,A,4841.2662,N,01132.3646,E,0.63,162.24,080809,,*05
$GPGGA,135248.000,4841.2661,N,01132.3648,E,1,08,1.2,368.9,M,47.6,M,,0000*5D
$GPGSA,A,3,14,30,29,27,04,12,02,09,,,,,2.2,1.2,1.9*3D
$GPRMC,135248.000,A,4841.2661,N,01132.3648,E,1.09,305.90,080809,,*06
$GPGGA,135249.000,4841.2663,N,01132.3649,E,1,08,1.2,367.7,M,47.6,M,,0000*5E
$GPGSA,A,3,14,30,29,27,04,12,02,09,,,,,2.2,1.2,1.9*3D
$GPRMC,135249.000,A,4841.2663,N,01132.3649,E,0.35,165.27,080809,,*02
$GPGGA,135250.000,4841.2666,N,01132.3649,E,1,08,1.2,365.6,M,47.6,M,,0000*50
$GPGSA,A,3,14,30,29,27,04,12,02,09,,,,,2.2,1.2,1.9*3D
$GPRMC,135250.000,A,4841.2666,N,01132.3649,E,0.24,167.89,080809,,*09
$GPGGA,135251.000,4841.2670,N,01132.3647,E,1,08,1.2,363.8,M,47.6,M,,0000*50
$GPGSA,A,3,14,30,29,27,04,12,02,09,,,,,2.2,1.2,1.9*3D
$GPGSV,3,1,09,12,80,014,17,30,56,276,22,09,45,139,19,14,40,283,22*7A
$GPGSV,3,2,09,26,38,225,,27,34,138,17,02,26,107,22,04,24,070,17*76
$GPGSV,3,3,09,29,19,207,17*40
$GPRMC,135251.000,A,4841.2670,N,01132.3647,E,1.57,350.09,080809,,*0A
$GPGGA,135252.000,4841.2673,N,01132.3649,E,1,08,1.2,363.5,M,47.6,M,,0000*53
$GPGSA,A,3,14,30,29,27,04,12,02,09,,,,,2.2,1.2,1.9*3D
$GPRMC,135252.000,A,4841.2673,N,01132.3649,E,0.31,73.75,080809,,*3C
$GPGGA,135253.000,4841.2674,N,01132.3653,E,1,08,1.2,364.1,M,47.6,M,,0000*5D
$GPGSA,A,3,14,30,29,27,04,12,02,09,,,,,2.2,1.2,1.9*3D
$GPRMC,135253.000,A,4841.2674,N,01132.3653,E,0.84,83.28,080809,,*38
$GPGGA,135254.000,4841.2674,N,01132.3656,E,1,08,1.2,364.7,M,47.6,M,,0000*59
$GPGSA,A,3,14,30,29,27,04,12,02,09,,,,,2.2,1.2,1.9*3D
$GPRMC,135254.000,A,4841.2674,N,01132.3656,E,1.04,150.72,080809,,*03
$GPGGA,135255.000,4841.2678,N,01132.3657,E,1,08,1.2,364.4,M,47.6,M,,0000*56
$GPGSA,A,3,14,30,29,27,04,12,02,09,,,,,2.2,1.2,1.9*3D
$GPRMC,135255.000,A,4841.2678,N,01132.3657,E,0.47,129.01,080809,,*03
$GPGGA,135256.000,4841.2681,N,01132.3655,E,1,08,1.2,364.9,M,47.6,M,,0000*5C
$GPGSA,A,3,14,30,29,27,04,12,02,09,,,,,2.2,1.2,1.9*3D
$GPGSV,3,1,09,12,80,014,19,30,56,276,22,09,45,139,19,14,40,283,21*77
$GPGSV,3,2,09,26,38,225,07,27,34,138,18,02,26,107,21,04,24,070,17*7D
$GPGSV,3,3,09,29,19,207,17*40
$GPRMC,135256.000,A,4841.2681,N,01132.3655,E,0.95,235.75,080809,,*06
$GPGGA,135257.000,4841.2680,N,01132.3651,E,1,08,1.2,364.5,M,47.6,M,,0000*54
$GPGSA,A,3,14,30,29,27,04,12,02,09,,,,,2.2,1.2,1.9*3D
$GPRMC,135257.000,A,4841.2680,N,01132.3651,E,1.02,251.88,080809,,*0D
$GPGGA,135258.000,4841.2680,N,01132.3650,E,1,08,1.2,363.6,M,47.6,M,,0000*5E
$GPGSA,A,3,14,30,29,27,04,12,02,09,,,,,2.2,1.2,1.9*3D
$GPRMC,135258.000,A,4841.2680,N,01132.3650,E,0.29,328.34,080809,,*03
$GPGGA,135259.000,4841.2677,N,01132.3647,E,1,08,1.2,364.3,M,47.6,M,,0000*53
$GPGSA,A,3,14,30,29,27,04,12,02,09,,,,,2.2,1.2,1.9*3D
$GPRMC,135259.000,A,4841.2677,N,01132.3647,E,1.85,252.20,080809,,*02
$GPGGA,135300.000,4841.2674,N,01132.3648,E,1,08,1.2,365.2,M,47.6,M,,0000*52
$GPGSA,A,3,14,30,29,27,04,12,02,09,,,,,2.2,1.2,1.9*3D
$GPRMC,135300.000,A,4841.2674,N,01132.3648,E,1.62,207.90,080809,,*01
$GPGGA,135301.000,4841.2667,N,01132.3648,E,1,08,1.2,365.9,M,47.6,M,,0000*5A
$GPGSA,A,3,14,30,29,27,04,12,02,09,,,,,2.2,1.2,1.9*3D
$GPGSV,3,1,09,12,80,014,21,30,56,276,22,09,45,139,19,14,40,283,20*7D
$GPGSV,3,2,09,26,38,225,,27,34,138,18,02,26,107,21,04,24,070,16*7B
$GPGSV,3,3,09,29,19,207,17*40
$GPRMC,135301.000,A,4841.2667,N,01132.3648,E,2.22,212.94,080809,,*05
$GPGGA,135302.000,4841.2664,N,01132.3654,E,1,08,1.2,367.6,M,47.6,M,,0000*5A
$GPGSA,A,3,14,30,29,27,04,12,02,09,,,,,2.2,1.2,1.9*3D
$GPRMC,135302.000,A,4841.2664,N,01132.3654,E,0.75,157.41,080809,,*02
$GPGGA,135303.000,4841.2669,N,01132.3657,E,1,08,1.2,367.4,M,47.6,M,,0000*57
$GPGSA,A,3,14,30,29,27,04,12,02,09,,,,,2.2,1.2,1.9*3D
$GPRMC,135303.000,A,4841.2669,N,01132.3657,E,0.76,24.17,080809,,*38
$GPGGA,135304.000,4841.2671,N,01132.3663,E,1,08,1.2,367.6,M,47.6,M,,0000*5C
$GPGSA,A,3,14,30,29,27,04,12,02,09,,,,,2.2,1.2,1.9*3D
$GPRMC,135304.000,A,4841.2671,N,01132.3663,E,1.13,86.15,080809,,*39
$GPGGA,135305.000,4841.2674,N,01132.3668,E,1,07,1.3,367.7,M,47.6,M,,0000*5C
$GPGSA,A,3,14,30,29,04,12,02,09,,,,,,2.3,1.3,2.0*32
$GPRMC,135305.000,A,4841.2674,N,01132.3668,E,0.66,31.28,080809,,*37
$GPGGA,135306.000,4841.2671,N,01132.3674,E,1,08,1.2,368.2,M,47.6,M,,0000*53
$GPGSA,A,3,14,30,29,27,04,12,02,09,,,,,2.2,1.2,1.9*3D
$GPGSV,3,1,09,12,80,014,21,30,56,276,23,09,45,139,19,14,40,283,20*7C
$GPGSV,3,2,09,26,38,225,,27,34,138,18,02,26,107,21,04,24,070,14*79
$GPGSV,3,3,09,29,19,207,17*40
$GPRMC,135306.000,A,4841.2671,N,01132.3674,E,1.27,133.74,080809,,*02
$GPGGA,135307.000,4841.2667,N,01132.3671,E,1,08,1.2,368.3,M,47.6,M,,0000*51
$GPGSA,A,3,14,30,29,27,04,12,02,09,,,,,2.2,1.2,1.9*3D
$GPRMC,135307.000,A,4841.2667,N,01132.3671,E,1.74,219.82,080809,,*05
$GPGGA,135308.000,4841.2663,N,01132.3665,E,1,08,1.2,367.3,M,47.6,M,,0000*50
$GPGSA,A,3,14,30,29,27,04,12,02,09,,,,,2.2,1.2,1.9*3D
$GPRMC,135308.000,A,4841.2663,N,01132.3665,E,2.34,209.81,080809,,*0E
$GPGGA,135309.000,4841.2663,N,01132.3659,E,1,08,1.2,366.3,M,47.6,M,,0000*5F
$GPGSA,A,3,14,30,29,27,04,12,02,09,,,,,2.2,1.2,1.9*3D
$GPRMC,135309.000,A,4841.2663,N,01132.3659,E,1.71,244.32,080809,,*03
$GPGGA,135310.000,4841.2667,N,01132.3658,E,1,08,1.2,364.8,M,47.6,M,,0000*5B
$GPGSA,A,3,14,30,29,27,04,12,02,09,,,,,2.2,1.2,1.9*3D
$GPRMC,135310.000,A,4841.2667,N,01132.3658,E,0.99,229.51,080809,,*07
$GPGGA,135311.000,4841.2667,N,01132.3656,E,1,07,1.7,364.6,M,47.6,M,,0000*50
$GPGSA,A,3,14,30,29,27,12,02,09,,,,,,3.1,1.7,2.6*32
$GPGSV,3,1,09,12,80,014,22,30,56,276,23,09,45,139,18,14,40,283,20*7E
$GPGSV,3,2,09,26,38,225,08,27,34,138,18,02,26,107,20,04,24,070,15*71
$GPGSV,3,3,09,29,19,207,17*40
$GPRMC,135311.000,A,4841.2667,N,01132.3656,E,0.73,275.13,080809,,*03
$GPGGA,135312.000,4841.2671,N,01132.3656,E,1,08,1.2,363.5,M,47.6,M,,0000*5A
$GPGSA,A,3,14,30,29,27,04,12,02,09,,,,,2.2,1.2,1.9*3D
$GPRMC,135312.000,A,4841.2671,N,01132.3656,E,1.22,357.33,080809,,*01
$GPGGA,135313.000,4841.2675,N,01132.3660,E,1,08,1.2,361.9,M,47.6,M,,0000*54
$GPGSA,A,3,14,30,29,27,04,12,02,09,,,,,2.2,1.2,1.9*3D
$GPRMC,135313.000,A,4841.2675,N,01132.3660,E,1.32,10.16,080809,,*37
$GPGGA,135314.000,4841.2683,N,01132.3661,E,1,08,1.2,360.5,M,47.6,M,,0000*56
$GPGSA,A,3,14,30,29,27,04,12,02,09,,,,,2.2,1.2,1.9*3D
$GPRMC,135314.000,A,4841.2683,N,01132.3661,E,2.20,15.27,080809,,*3F
$GPGGA,135315.000,4841.2689,N,01132.3666,E,1,08,1.2,359.2,M,47.6,M,,0000*57
$GPGSA,A,3,14,30,29,27,04,12,02,09,,,,,2.2,1.2,1.9*3D
$GPRMC,135315.000,A,4841.2689,N,01132.3666,E,2.61,40.20,080809,,*31
$GPGGA,135316.000,4841.2692,N,01132.3669,E,1,08,1.2,360.2,M,47.6,M,,0000*5B
$GPGSA,A,3,14,30,29,27,04,12,02,09,,,,,2.2,1.2,1.9*3D
$GPGSV,3,1,09,12,80,014,22,30,56,276,23,09,45,139,17,14,40,283,20*71
$GPGSV,3,2,09,26,38,225,13,27,34,138,17,02,26,107,20,04,24,070,16*77
$GPGSV,3,3,09,29,19,207,17*40
$GPRMC,135316.000,A,4841.2692,N,01132.3669,E,1.35,335.74,080809,,*05
$GPGGA,135317.000,4841.2687,N,01132.3666,E,1,08,1.2,362.4,M,47.6,M,,0000*55
$GPGSA,A,3,14,30,29,27,04,12,02,09,,,,,2.2,1.2,1.9*3D
$GPRMC,135317.000,A,4841.2687,N,01132.3666,E,1.04,217.37,080809,,*0B
$GPGGA,135318.000,4841.2685,N,01132.3664,E,1,08,1.2,362.2,M,47.6,M,,0000*5C
$GPGSA,A,3,14,30,29,27,04,12,02,09,,,,,2.2,1.2,1.9*3D
$GPRMC,135318.000,A,4841.2685,N,01132.3664,E,1.13,188.15,080809,,*07
$GPGGA,135319.000,4841.2686,N,01132.3664,E,1,08,1.2,362.0,M,47.6,M,,0000*5C
$GPGSA,A,3,14,30,29,27,04,12,02,09,,,,,2.2,1.2,1.9*3D
$GPRMC,135319.000,A,4841.2686,N,01132.3664,E,1.55,173.08,080809,,*0F
$GPGGA,135320.000,4841.2686,N,01132.3665,E,1,08,1.2,361.2,M,47.6,M,,0000*56
$GPGSA,A,3,14,30,29,27,04,12,02,09,,,,,2.2,1.2,1.9*3D
$GPRMC,135320.000,A,4841.2686,N,01132.3665,E,0.87,206.53,080809,,*05
$GPGGA,135321.000,4841.2689,N,01132.3666,E,1,08,1.2,360.5,M,47.6,M,,0000*5D
$GPGSA,A,3,14,30,29,27,04,12,02,09,,,,,2.2,1.2,1.9*3D
$GPGSV,3,1,09,12,80,014,22,30,56,276,23,09,45,139,17,14,40,283,19*7B
$GPGSV,3,2,09,26,38,225,18,27,34,138,17,02,26,107,20,04,24,070,17*7D
$GPGSV,3,3,09,29,19,207,17*40
$GPRMC,135321.000,A,4841.2689,N,01132.3666,E,0.88,322.17,080809,,*00
$GPGGA,135322.000,4841.2694,N,01132.3662,E,1,08,1.2,359.4,M,47.6,M,,0000*5D
$GPGSA,A,3,14,30,29,27,04,12,02,09,,,,,2.2,1.2,1.9*3D
$GPRMC,135322.000,A,4841.2694,N,01132.3662,E,0.38,288.51,080809,,*03
$GPGGA,135323.000,4841.2695,N,01132.3662,E,1,08,1.2,359.1,M,47.6,M,,0000*58
$GPGSA,A,3,14,30,29,27,04,12,02,09,,,,,2.2,1.2,1.9*3D
$GPRMC,135323.000,A,4841.2695,N,01132.3662,E,0.26,278.25,080809,,*00
$GPGGA,135324.000,4841.2695,N,01132.3656,E,1,08,1.2,357.9,M,47.6,M,,0000*5E
$GPGSA,A,3,14,30,29,27,04,12,02,09,,,,,2.2,1.2,1.9*3D
$GPRMC,135324.000,A,4841.2695,N,01132.3656,E,1.37,240.39,080809,,*07
$GPGGA,135325.000,4841.2692,N,01132.3653,E,1,08,1.2,358.3,M,47.6,M,,0000*58
$GPGSA,A,3,14,30,29,27,04,12,02,09,,,,,2.2,1.2,1.9*3D
$GPRMC,135325.000,A,4841.2692,N,01132.3653,E,0.95,216.06,080809,,*02
$GPGGA,135326.000,4841.2692,N,01132.3646,E,1,08,1.2,357.5,M,47.6,M,,0000*56
$GPGSA,A,3,14,30,29,27,04,12,02,09,,,,,2.2,1.2,1.9*3D
$GPGSV,3,1,09,12,80,014,22,30,56,276,23,09,45,139,17,14,40,283,20*71
$GPGSV,3,2,09,26,38,225,19,27,34,138,17,02,26,107,19,04,24,070,19*78
$GPGSV,3,3,09,29,19,207,18*4F
$GPRMC,135326.000,A,4841.2692,N,01132.3646,E,2.43,275.25,080809,,*08
$GPGGA,135327.000,4841.2692,N,01132.3641,E,1,08,1.2,356.5,M,47.6,M,,0000*51
$GPGSA,A,3,14,30,29,27,04,12,02,09,,,,,2.2,1.2,1.9*3D
$GPRMC,135327.000,A,4841.2692,N,01132.3641,E,1.20,286.97,080809,,*0D
$GPGGA,135328.000,4841.2696,N,01132.3637,E,1,08,1.2,355.5,M,47.6,M,,0000*58
$GPGSA,A,3,14,30,29,27,04,12,02,09,,,,,2.2,1.2,1.9*3D
$GPRMC,135328.000,A,4841.2696,N,01132.3637,E,0.53,316.70,080809,,*03
$GPGGA,135329.000,4841.2698,N,01132.3635,E,1,08,1.2,355.1,M,47.6,M,,0000*51
$GPGSA,A,3,14,30,29,27,04,12,02,09,,,,,2.2,1.2,1.9*3D
$GPRMC,135329.000,A,4841.2698,N,01132.3635,E,1.18,282.41,080809,,*0E
$GPGGA,135330.000,4841.2699,N,01132.3632,E,1,08,1.2,354.4,M,47.6,M,,0000*5B
$GPGSA,A,3,14,30,29,27,04,12,02,09,,,,,2.2,1.2,1.9*3D
$GPRMC,135330.000,A,4841.2699,N,01132.3632,E,0.77,6.25,080809,,*04
$GPGGA,135331.000,4841.2701,N,01132.3633,E,1,08,1.2,353.4,M,47.6,M,,0000*5C
$GPGSA,A,3,14,30,29,27,04,12,02,09,,,,,2.2,1.2,1.9*3D
$GPGSV,3,1,09,12,80,014,22,30,56,276,23,09,45,139,17,14,40,283,19*7B
$GPGSV,3,2,09,26,38,225,17,27,34,138,18,02,26,107,18,04,24,070,20*72
$GPGSV,3,3,09,29,19,207,17*40
$GPRMC,135331.000,A,4841.2701,N,01132.3633,E,0.28,111.61,080809,,*09
$GPGGA,135332.000,4841.2695,N,01132.3636,E,1,08,1.2,352.5,M,47.6,M,,0000*56
$GPGSA,A,3,14,30,29,27,04,12,02,09,,,,,2.2,1.2,1.9*3D
$GPRMC,135332.000,A,4841.2695,N,01132.3636,E,1.35,180.93,080809,,*0B
$GPGGA,135333.000,4841.2694,N,01132.3633,E,1,08,1.2,351.2,M,47.6,M,,0000*57
$GPGSA,A,3,14,30,29,27,04,12,02,09,,,,,2.2,1.2,1.9*3D
$GPRMC,135333.000,A,4841.2694,N,01132.3633,E,1.02,202.82,080809,,*03
$GPGGA,135334.000,4841.2693,N,01132.3630,E,1,08,1.2,351.5,M,47.6,M,,0000*53
$GPGSA,A,3,14,30,29,27,04,12,02,09,,,,,2.2,1.2,1.9*3D
$GPRMC,135334.000,A,4841.2693,N,01132.3630,E,1.16,220.51,080809,,*0B
$GPGGA,135335.000,4841.2695,N,01132.3627,E,1,08,1.2,350.0,M,47.6,M,,0000*56
$GPGSA,A,3,14,30,29,27,04,12,02,09,,,,,2.2,1.2,1.9*3D
$GPRMC,135335.000,A,4841.2695,N,01132.3627,E,0.78,357.62,080809,,*02
$GPGGA,135336.000,4841.2700,N,01132.3628,E,1,08,1.2,349.4,M,47.6,M,,0000*5B
$GPGSA,A,3,14,30,29,27,04,12,02,09,,,,,2.2,1.2,1.9*3D
$GPGSV,3,1,09,12,80,014,22,30,56,276,22,09,45,139,18,14,40,283,18*74
$GPGSV,3,2,09,26,38,225,,27,34,138,18,02,26,107,17,04,24,070,21*7A
$GPGSV,3,3,09,29,19,207,18*4F
$GPRMC,135336.000,A,4841.2700,N,01132.3628,E,1.26,334.39,080809,,*02
$GPGGA,135337.000,4841.2701,N,01132.3624,E,1,08,1.2,350.0,M,47.6,M,,0000*5B
$GPGSA,A,3,14,30,29,27,04,12,02,09,,,,,2.2,1.2,1.9*3D
$GPRMC,135337.000,A,4841.2701,N,01132.3624,E,1.60,304.76,080809,,*04
$GPGGA,135338.000,4841.2704,N,01132.3620,E,1,07,1.4,351.0,M,47.6,M,,0000*5D
$GPGSA,A,3,30,29,27,04,12,02,09,,,,,,2.5,1.4,2.1*32
$GPRMC,135338.000,A,4841.2704,N,01132.3620,E,1.80,331.12,080809,,*00
$GPGGA,135339.000,4841.2703,N,01132.3617,E,1,07,1.4,351.4,M,47.6,M,,0000*5B
$GPGSA,A,3,30,29,27,04,12,02,09,,,,,,2.5,1.4,2.1*32
$GPRMC,135339.000,A,4841.2703,N,01132.3617,E,1.30,283.35,080809,,*04
$GPGGA,135340.000,4841.2699,N,01132.3617,E,1,08,1.2,352.1,M,47.6,M,,0000*58
$GPGSA,A,3,14,30,29,27,04,12,02,09,,,,,2.2,1.2,1.9*3D
$GPRMC,135340.000,A,4841.2699,N,01132.3617,E,1.52,185.18,080809,,*06
$GPGGA,135341.000,4841.2695,N,01132.3617,E,1,08,1.2,352.6,M,47.6,M,,0000*52
$GPGSA,A,3,14,30,29,27,04,12,02,09,,,,,2.2,1.2,1.9*3D
$GPGSV,3,1,09,12,80,014,21,30,56,276,21,09,45,139,19,14,40,283,12*7F
$GPGSV,3,2,09,26,38,225,16,27,34,138,17,02,26,107,18,04,24,070,22*7E
$GPGSV,3,3,09,29,19,207,17*40
$GPRMC,135341.000,A,4841.2695,N,01132.3617,E,2.47,214.88,080809,,*0E
$GPGGA,135342.000,4841.2688,N,01132.3615,E,1,08,1.1,353.6,M,47.6,M,,0000*5D
$GPGSA,A,3,14,30,29,27,04,12,02,09,,,,,2.2,1.1,1.9*3E
$GPRMC,135342.000,A,4841.2688,N,01132.3615,E,2.32,227.69,080809,,*0E
$GPGGA,135343.000,4841.2686,N,01132.3615,E,1,07,1.4,354.7,M,47.6,M,,0000*5E
$GPGSA,A,3,30,29,27,04,12,02,09,,,,,,2.5,1.4,2.1*32
$GPRMC,135343.000,A,4841.2686,N,01132.3615,E,1.28,263.71,080809,,*00
$GPGGA,135344.000,4841.2686,N,01132.3613,E,1,07,1.4,355.0,M,47.6,M,,0000*59
$GPGSA,A,3,30,29,27,04,12,02,09,,,,,,2.5,1.4,2.1*32
$GPRMC,135344.000,A,4841.2686,N,01132.3613,E,1.27,302.44,080809,,*0E
$GPGGA,135345.000,4841.2684,N,01132.3615,E,1,07,1.4,355.8,M,47.6,M,,0000*54
$GPGSA,A,3,30,29,27,04,12,02,09,,,,,,2.5,1.4,2.1*32
$GPRMC,135345.000,A,4841.2684,N,01132.3615,E,1.05,202.58,080809,,*07
$GPGGA,135346.000,4841.2679,N,01132.3620,E,1,07,1.4,356.2,M,47.6,M,,0000*5A
$GPGSA,A,3,30,29,27,04,12,02,09,,,,,,2.5,1.4,2.1*32
$GPGSV,3,1,09,12,80,014,21,30,56,276,21,09,45,139,24,14,40,283,11*72
$GPGSV,3,2,09,26,38,225,19,27,34,138,17,02,26,107,18,04,24,070,23*70
$GPGSV,3,3,09,29,19,207,16*41
$GPRMC,135346.000,A,4841.2679,N,01132.3620,E,2.11,200.70,080809,,*0E
$GPGGA,135347.000,4841.2678,N,01132.3620,E,1,07,1.4,354.8,M,47.6,M,,0000*52
$GPGSA,A,3,30,29,27,04,12,02,09,,,,,,2.5,1.4,2.1*32
$GPRMC,135347.000,A,4841.2678,N,01132.3620,E,1.34,160.94,080809,,*05
$GPGGA,135348.000,4841.2677,N,01132.3621,E,1,07,1.4,353.9,M,47.6,M,,0000*55
$GPGSA,A,3,30,29,27,04,12,02,09,,,,,,2.5,1.4,2.1*32
$GPRMC,135348.000,A,4841.2677,N,01132.3621,E,0.81,189.16,080809,,*06
$GPGGA,135349.000,4841.2674,N,01132.3630,E,1,07,1.4,354.2,M,47.6,M,,0000*5B
$GPGSA,A,3,30,29,27,04,12,02,09,,,,,,2.5,1.4,2.1*32
$GPRMC,135349.000,A,4841.2674,N,01132.3630,E,1.82,124.77,080809,,*06
$GPGGA,135350.000,4841.2672,N,01132.3636,E,1,07,1.4,354.5,M,47.6,M,,0000*54
$GPGSA,A,3,30,29,27,04,12,02,09,,,,,,2.5,1.4,2.1*32
$GPRMC,135350.000,A,4841.2672,N,01132.3636,E,1.13,159.94,080809,,*01
$GPGGA,135351.000,4841.2670,N,01132.3646,E,1,07,1.4,355.5,M,47.6,M,,0000*51
$GPGSA,A,3,30,29,27,04,12,02,09,,,,,,2.5,1.4,2.1*32
$GPGSV,3,1,09,12,80,014,21,30,56,276,21,09,45,139,24,14,40,283,07*75
$GPGSV,3,2,09,26,38,225,19,27,34,138,16,02,26,107,18,04,24,070,23*71
$GPGSV,3,3,09,29,19,207,16*41
$GPRMC,135351.000,A,4841.2670,N,01132.3646,E,1.82,150.49,080809,,*04
$GPGGA,135352.000,4841.2667,N,01132.3657,E,1,07,1.4,355.9,M,47.6,M,,0000*58
$GPGSA,A,3,30,29,27,04,12,02,09,,,,,,2.5,1.4,2.1*32
$GPRMC,135352.000,A,4841.2667,N,01132.3657,E,3.34,120.53,080809,,*02
$GPGGA,135353.000,4841.2672,N,01132.3664,E,1,07,1.4,356.6,M,47.6,M,,0000*51
$GPGSA,A,3,30,29,27,04,12,02,09,,,,,,2.5,1.4,2.1*32
$GPRMC,135353.000,A,4841.2672,N,01132.3664,E,2.10,99.39,080809,,*3F
$GPGGA,135354.000,4841.2674,N,01132.3665,E,1,07,1.4,357.8,M,47.6,M,,0000*5E
$GPGSA,A,3,30,29,27,04,12,02,09,,,,,,2.5,1.4,2.1*32
$GPRMC,135354.000,A,4841.2674,N,01132.3665,E,0.72,88.53,080809,,*35
$GPGGA,135355.000,4841.2675,N,01132.3668,E,1,07,1.4,358.0,M,47.6,M,,0000*54
$GPGSA,A,3,30,29,27,04,12,02,09,,,,,,2.5,1.4,2.1*32
$GPRMC,135355.000,A,4841.2675,N,01132.3668,E,1.76,36.49,080809,,*33
$GPGGA,135356.000,4841.2677,N,01132.3669,E,1,07,1.4,358.1,M,47.6,M,,0000*55
$GPGSA,A,3,30,29,27,04,12,02,09,,,,,,2.5,1.4,2.1*32
$GPGSV,3,1,09,12,80,014,20,30,56,276,21,09,45,139,24,14,40,283,07*74
$GPGSV,3,2,09,26,38,225,,27,34,138,16,02,26,107,17,04,24,070,23*76
$GPGSV,3,3,09,29,19,207,16*41
$GPRMC,135356.000,A,4841.2677,N,01132.3669,E,1.35,359.33,080809,,*03
$GPGGA,135357.000,4841.2674,N,01132.3670,E,1,07,1.4,357.9,M,47.6,M,,0000*58
$GPGSA,A,3,30,29,27,04,12,02,09,,,,,,2.5,1.4,2.1*32
$GPRMC,135357.000,A,4841.2674,N,01132.3670,E,1.59,129.28,080809,,*0C
$GPGGA,135358.000,4841.2671,N,01132.3678,E,1,07,1.4,358.3,M,47.6,M,,0000*5F
$GPGSA,A,3,30,29,27,04,12,02,09,,,,,,2.5,1.4,2.1*32
$GPRMC,135358.000,A,4841.2671,N,01132.3678,E,1.00,60.32,080809,,*35
$GPGGA,135359.000,4841.2670,N,01132.3679,E,1,07,1.4,357.1,M,47.6,M,,0000*53
$GPGSA,A,3,30,29,27,04,12,02,09,,,,,,2.5,1.4,2.1*32
$GPRMC,135359.000,A,4841.2670,N,01132.3679,E,0.91,115.57,080809,,*0D
$GPGGA,135400.000,4841.2669,N,01132.3683,E,1,07,1.4,357.3,M,47.6,M,,0000*57
$GPGSA,A,3,30,29,27,04,12,02,09,,,,,,2.5,1.4,2.1*32
$GPRMC,135400.000,A,4841.2669,N,01132.3683,E,0.91,103.64,080809,,*0C
$GPGGA,135401.000,4841.2670,N,01132.3683,E,1,07,1.4,357.7,M,47.6,M,,0000*5A
$GPGSA,A,3,30,29,27,04,12,02,09,,,,,,2.5,1.4,2.1*32
$GPGSV,3,1,09,12,80,014,19,30,56,276,21,09,45,139,24,14,40,283,12*7A
$GPGSV,3,2,09,26,38,225,18,27,34,138,17,02,26,107,17,04,24,070,23*7E
$GPGSV,3,3,09,29,19,207,16*41
$GPRMC,135401.000,A,4841.2670,N,01132.3683,E,1.40,305.47,080809,,*0D
$GPGGA,135402.000,4841.2672,N,01132.3682,E,1,07,1.4,358.8,M,47.6,M,,0000*5A
$GPGSA,A,3,30,29,27,04,12,02,09,,,,,,2.5,1.4,2.1*32
$GPRMC,135402.000,A,4841.2672,N,01132.3682,E,1.05,338.71,080809,,*07
$GPGGA,135403.000,4841.2674,N,01132.3680,E,1,07,1.4,359.5,M,47.6,M,,0000*53
$GPGSA,A,3,30,29,27,04,12,02,09,,,,,,2.5,1.4,2.1*32
$GPRMC,135403.000,A,4841.2674,N,01132.3680,E,0.52,9.32,080809,,*07
$GPGGA,135404.000,4841.2674,N,01132.3677,E,1,07,1.4,360.0,M,47.6,M,,0000*53
$GPGSA,A,3,30,29,27,04,12,02,09,,,,,,2.5,1.4,2.1*32
$GPRMC,135404.000,A,4841.2674,N,01132.3677,E,0.85,285.00,080809,,*05
$GPGGA,135405.000,4841.2672,N,01132.3675,E,1,07,1.4,359.8,M,47.6,M,,0000*54
$GPGSA,A,3,30,29,27,04,12,02,09,,,,,,2.5,1.4,2.1*32
$GPRMC,135405.000,A,4841.2672,N,01132.3675,E,1.50,281.00,080809,,*0D
$GPGGA,135406.000,4841.2670,N,01132.3682,E,1,07,1.4,360.7,M,47.6,M,,0000*58
$GPGSA,A,3,30,29,27,04,12,02,09,,,,,,2.5,1.4,2.1*32
$GPGSV,3,1,09,12,80,014,19,30,56,276,21,09,45,139,24,14,40,283,11*79
$GPGSV,3,2,09,26,38,225,,27,34,138,17,02,26,107,16,04,24,070,24*71
$GPGSV,3,3,09,29,19,207,16*41
$GPRMC,135406.000,A,4841.2670,N,01132.3682,E,1.20,59.63,080809,,*31
$GPGGA,135407.000,4841.2672,N,01132.3696,E,1,07,1.4,362.6,M,47.6,M,,0000*5D
$GPGSA,A,3,30,29,27,04,12,02,09,,,,,,2.5,1.4,2.1*32
$GPRMC,135407.000,A,4841.2672,N,01132.3696,E,1.78,33.64,080809,,*31
$GPGGA,135408.000,4841.2676,N,01132.3703,E,1,07,1.4,364.5,M,47.6,M,,0000*5E
$GPGSA,A,3,30,29,27,04,12,02,09,,,,,,2.5,1.4,2.1*32
$GPRMC,135408.000,A,4841.2676,N,01132.3703,E,1.20,63.34,080809,,*3A
$GPGGA,135409.000,4841.2676,N,01132.3704,E,1,07,1.4,365.4,M,47.6,M,,0000*58
$GPGSA,A,3,30,29,27,04,12,02,09,,,,,,2.5,1.4,2.1*32
$GPRMC,135409.000,A,4841.2676,N,01132.3704,E,0.31,312.04,080809,,*0B
$GPGGA,135410.000,4841.2677,N,01132.3704,E,1,07,1.4,365.7,M,47.6,M,,0000*52
$GPGSA,A,3,30,29,27,04,12,02,09,,,,,,2.5,1.4,2.1*32
$GPRMC,135410.000,A,4841.2677,N,01132.3704,E,0.54,50.57,080809,,*32
$GPGGA,135411.000,4841.2677,N,01132.3701,E,1,07,1.4,364.6,M,47.6,M,,0000*56
$GPGSA,A,3,30,29,27,04,12,02,09,,,,,,2.5,1.4,2.1*32
$GPGSV,3,1,09,12,80,014,20,30,56,276,16,09,45,139,24,14,40,283,11*77
$GPGSV,3,2,09,26,38,225,19,27,34,138,18,02,26,107,17,04,24,070,21*72
$GPGSV,3,3,09,29,19,207,16*41
$GPRMC,135411.000,A,4841.2677,N,01132.3701,E,0.60,267.28,080809,,*0F
$GPGGA,135412.000,4841.2679,N,01132.3695,E,1,07,1.4,362.3,M,47.6,M,,0000*54
$GPGSA,A,3,30,29,27,04,12,02,09,,,,,,2.5,1.4,2.1*32
$GPRMC,135412.000,A,4841.2679,N,01132.3695,E,0.92,7.58,080809,,*00
$GPGGA,135413.000,4841.2680,N,01132.3691,E,1,06,1.9,362.0,M,47.6,M,,0000*58
$GPGSA,A,3,30,27,04,12,02,09,,,,,,,4.0,1.9,3.5*32
$GPRMC,135413.000,A,4841.2680,N,01132.3691,E,1.48,236.62,080809,,*0C
$GPGGA,135414.000,4841.2676,N,01132.3687,E,1,07,1.4,361.2,M,47.6,M,,0000*5C
$GPGSA,A,3,30,29,27,04,12,02,09,,,,,,2.5,1.4,2.1*32
$GPRMC,135414.000,A,4841.2676,N,01132.3687,E,0.96,183.32,080809,,*0F
$GPGGA,135415.000,4841.2672,N,01132.3692,E,1,07,1.4,360.1,M,47.6,M,,0000*5F
$GPGSA,A,3,30,29,27,04,12,02,09,,,,,,2.5,1.4,2.1*32
$GPRMC,135415.000,A,4841.2672,N,01132.3692,E,1.84,107.32,080809,,*00
$GPGGA,135416.000,4841.2674,N,01132.3693,E,1,07,1.4,360.8,M,47.6,M,,0000*52
$GPGSA,A,3,30,29,27,04,12,02,09,,,,,,2.5,1.4,2.1*32
$GPGSV,3,1,09,12,80,014,20,30,56,276,22,09,45,139,24,14,40,283,13*72
$GPGSV,3,2,09,26,38,225,19,27,34,138,18,02,26,107,17,04,24,070,21*72
$GPGSV,3,3,09,29,19,207,16*41
$GPRMC,135416.000,A,4841.2674,N,01132.3693,E,0.57,317.62,080809,,*0D
$GPGGA,135417.000,4841.2673,N,01132.3691,E,1,07,1.4,361.1,M,47.6,M,,0000*5E
$GPGSA,A,3,30,29,27,04,12,02,09,,,,,,2.5,1.4,2.1*32
$GPRMC,135417.000,A,4841.2673,N,01132.3691,E,0.99,228.97,080809,,*0C
$GPGGA,135418.000,4841.2673,N,01132.3691,E,1,07,1.4,361.3,M,47.6,M,,0000*53
$GPGSA,A,3,30,29,27,04,12,02,09,,,,,,2.5,1.4,2.1*32
$GPRMC,135418.000,A,4841.2673,N,01132.3691,E,1.00,314.85,080809,,*0F
$GPGGA,135419.000,4841.2669,N,01132.3690,E,1,07,1.4,361.1,M,47.6,M,,0000*5A
$GPGSA,A,3,30,29,27,04,12,02,09,,,,,,2.5,1.4,2.1*32
$GPRMC,135419.000,A,4841.2669,N,01132.3690,E,1.44,262.26,080809,,*0D
$GPGGA,135420.000,4841.2667,N,01132.3685,E,1,07,1.4,360.2,M,47.6,M,,0000*58
$GPGSA,A,3,30,29,27,04,12,02,09,,,,,,2.5,1.4,2.1*32
$GPRMC,135420.000,A,4841.2667,N,01132.3685,E,1.05,289.29,080809,,*02
$GPGGA,135421.000,4841.2666,N,01132.3680,E,1,07,1.4,359.0,M,47.6,M,,0000*55
$GPGSA,A,3,30,29,27,04,12,02,09,,,,,,2.5,1.4,2.1*32
$GPGSV,3,1,09,12,80,014,20,30,56,276,20,09,45,139,24,14,40,283,13*70
$GPGSV,3,2,09,26,38,225,,27,34,138,18,02,26,107,17,04,24,070,21*7A
$GPGSV,3,3,09,29,19,207,17*40
$GPRMC,135421.000,A,4841.2666,N,01132.3680,E,0.75,158.19,080809,,*0D
$GPGGA,135422.000,4841.2663,N,01132.3680,E,1,07,1.4,358.9,M,47.6,M,,0000*5B
$GPGSA,A,3,30,29,27,04,12,02,09,,,,,,2.5,1.4,2.1*32
$GPRMC,135422.000,A,4841.2663,N,01132.3680,E,0.96,165.24,080809,,*06
$GPGGA,135423.000,4841.2662,N,01132.3671,E,1,08,1.1,357.4,M,47.6,M,,0000*5D
$GPGSA,A,3,14,30,29,27,04,12,02,09,,,,,2.3,1.1,1.9*3F
$GPRMC,135423.000,A,4841.2662,N,01132.3671,E,1.53,205.05,080809,,*06
$GPGGA,135424.000,4841.2658,N,01132.3669,E,1,08,1.1,357.8,M,47.6,M,,0000*56
$GPGSA,A,3,14,30,29,27,04,12,02,09,,,,,2.3,1.1,1.9*3F
$GPRMC,135424.000,A,4841.2658,N,01132.3669,E,2.90,193.97,080809,,*0A
$GPGGA,135425.000,4841.2650,N,01132.3670,E,1,08,1.1,358.4,M,47.6,M,,0000*54
$GPGSA,A,3,14,30,29,27,04,12,02,09,,,,,2.3,1.1,1.9*3F
$GPRMC,135425.000,A,4841.2650,N,01132.3670,E,3.49,191.77,080809,,*02
$GPGGA,135426.000,4841.2645,N,01132.3669,E,1,08,1.1,358.8,M,47.6,M,,0000*57
$GPGSA,A,3,14,30,29,27,04,12,02,09,,,,,2.3,1.1,1.9*3F
$GPGSV,3,1,09,12,80,014,20,30,56,276,19,09,45,139,24,14,40,283,15*7C
$GPGSV,3,2,09,26,38,225,20,27,34,138,19,02,26,107,17,04,24,070,20*78
$GPGSV,3,3,09,29,19,207,17*40
$GPRMC,135426.000,A,4841.2645,N,01132.3669,E,2.16,176.21,080809,,*0C
$GPGGA,135427.000,4841.2639,N,01132.3676,E,1,08,1.1,359.5,M,47.6,M,,0000*5F
$GPGSA,A,3,14,30,29,27,04,12,02,09,,,,,2.3,1.1,1.9*3F
$GPRMC,135427.000,A,4841.2639,N,01132.3676,E,2.56,133.68,080809,,*00
$GPGGA,135428.000,4841.2635,N,01132.3682,E,1,07,1.2,359.3,M,47.6,M,,0000*5D
$GPGSA,A,3,14,30,29,27,04,02,09,,,,,,2.8,1.2,2.5*3B
$GPRMC,135428.000,A,4841.2635,N,01132.3682,E,1.83,120.43,080809,,*08
$GPGGA,135429.000,4841.2634,N,01132.3685,E,1,07,1.2,359.4,M,47.6,M,,0000*5D
$GPGSA,A,3,14,30,29,27,04,02,09,,,,,,2.8,1.2,2.5*3B
$GPRMC,135429.000,A,4841.2634,N,01132.3685,E,1.30,121.16,080809,,*06
$GPGGA,135430.000,4841.2630,N,01132.3693,E,1,08,1.1,361.0,M,47.6,M,,0000*55
$GPGSA,A,3,14,30,29,27,04,12,02,09,,,,,2.3,1.1,1.9*3F
$GPRMC,135430.000,A,4841.2630,N,01132.3693,E,1.62,141.76,080809,,*0A
$GPGGA,135431.000,4841.2629,N,01132.3700,E,1,08,1.1,362.1,M,47.6,M,,0000*55
$GPGSA,A,3,14,30,29,27,04,12,02,09,,,,,2.3,1.1,1.9*3F
$GPGSV,3,1,09,12,80,014,13,30,56,276,20,09,45,139,23,14,40,283,16*72
$GPGSV,3,2,09,26,38,225,19,27,34,138,20,02,26,107,16,04,24,070,20*79
$GPGSV,3,3,09,29,19,207,18*4F
$GPRMC,135431.000,A,4841.2629,N,01132.3700,E,1.15,132.23,080809,,*0C
$GPGGA,135432.000,4841.2630,N,01132.3703,E,1,07,1.4,362.5,M,47.6,M,,0000*53
$GPGSA,A,3,30,29,27,04,12,02,09,,,,,,2.5,1.4,2.1*32
$GPRMC,135432.000,A,4841.2630,N,01132.3703,E,1.33,145.98,080809,,*00
$GPGGA,135433.000,4841.2630,N,01132.3709,E,1,08,1.1,362.9,M,47.6,M,,0000*5E
$GPGSA,A,3,14,30,29,27,04,12,02,09,,,,,2.3,1.1,1.9*3F
$GPRMC,135433.000,A,4841.2630,N,01132.3709,E,1.71,141.25,080809,,*0F
$GPGGA,135434.000,4841.2631,N,01132.3708,E,1,08,1.1,363.1,M,47.6,M,,0000*50
$GPGSA,A,3,14,30,29,27,04,12,02,09,,,,,2.3,1.1,1.9*3F
$GPRMC,135434.000,A,4841.2631,N,01132.3708,E,1.27,190.87,080809,,*0F
$GPGGA,135435.000,4841.2633,N,01132.3700,E,1,08,1.1,362.1,M,47.6,M,,0000*5A
$GPGSA,A,3,14,30,29,27,04,12,02,09,,,,,2.3,1.1,1.9*3F
$GPRMC,135435.000,A,4841.2633,N,01132.3700,E,1.04,238.25,080809,,*0C
$GPGGA,135436.000,4841.2633,N,01132.3696,E,1,08,1.1,360.2,M,47.6,M,,0000*56
$GPGSA,A,3,14,30,29,27,04,12,02,09,,,,,2.3,1.1,1.9*3F
$GPGSV,3,1,09,12,80,014,17,30,56,276,20,09,45,139,23,14,40,283,14*74
$GPGSV,3,2,09,26,38,225,19,27,34,138,21,02,26,107,15,04,24,070,19*71
$GPGSV,3,3,09,29,19,207,14*43
$GPRMC,135436.000,A,4841.2633,N,01132.3696,E,0.13,226.38,080809,,*05
$GPGGA,135437.000,4841.2634,N,01132.3690,E,1,08,1.1,359.1,M,47.6,M,,0000*5F
$GPGSA,A,3,14,30,29,27,04,12,02,09,,,,,2.3,1.1,1.9*3F
$GPRMC,135437.000,A,4841.2634,N,01132.3690,E,2.29,209.13,080809,,*0A
$GPGGA,135438.000,4841.2632,N,01132.3686,E,1,08,1.1,358.4,M,47.6,M,,0000*55
$GPGSA,A,3,14,30,29,27,04,12,02,09,,,,,2.3,1.1,1.9*3F
$GPRMC,135438.000,A,4841.2632,N,01132.3686,E,1.75,205.93,080809,,*0A
$GPGGA,135439.000,4841.2629,N,01132.3687,E,1,08,1.1,357.6,M,47.6,M,,0000*52
$GPGSA,A,3,14,30,29,27,04,12,02,09,,,,,2.3,1.1,2.0*35
$GPRMC,135439.000,A,4841.2629,N,01132.3687,E,1.40,158.60,080809,,*01
$GPGGA,135440.000,4841.2629,N,01132.3689,E,1,08,1.1,357.1,M,47.6,M,,0000*55
$GPGSA,A,3,14,30,29,27,04,12,02,09,,,,,2.3,1.1,2.0*35
$GPRMC,135440.000,A,4841.2629,N,01132.3689,E,2.50,140.40,080809,,*08
$GPGGA,135441.000,4841.2622,N,01132.3691,E,1,06,1.4,357.5,M,47.6,M,,0000*59
$GPGSA,A,3,30,29,27,04,02,09,,,,,,,2.9,1.4,2.6*3A
$GPGSV,3,1,09,12,80,014,18,30,56,276,20,09,45,139,22,14,40,283,*7F
$GPGSV,3,2,09,26,38,225,,27,34,138,21,02,26,107,14,04,24,070,19*78
$GPGSV,3,3,09,29,19,207,14*43
$GPRMC,135441.000,A,4841.2622,N,01132.3691,E,3.03,165.51,080809,,*0B
$GPGGA,135442.000,4841.2621,N,01132.3692,E,1,06,1.4,358.0,M,47.6,M,,0000*50
$GPGSA,A,3,30,29,27,04,02,09,,,,,,,2.9,1.4,2.6*3A
$GPRMC,135442.000,A,4841.2621,N,01132.3692,E,1.54,161.30,080809,,*0B
$GPGGA,135443.000,4841.2624,N,01132.3695,E,1,07,1.4,359.4,M,47.6,M,,0000*57
$GPGSA,A,3,30,29,27,04,12,02,09,,,,,,2.5,1.4,2.1*32
$GPRMC,135443.000,A,4841.2624,N,01132.3695,E,2.03,148.22,080809,,*01
$GPGGA,135444.000,4841.2623,N,01132.3696,E,1,07,1.4,361.1,M,47.6,M,,0000*5A
$GPGSA,A,3,30,29,27,04,12,02,09,,,,,,2.5,1.4,2.1*32
$GPRMC,135444.000,A,4841.2623,N,01132.3696,E,2.50,179.78,080809,,*09
$GPGGA,135445.000,4841.2627,N,01132.3690,E,1,06,1.4,360.4,M,47.6,M,,0000*5C
$GPGSA,A,3,30,29,27,04,02,09,,,,,,,2.9,1.4,2.6*3A
$GPRMC,135445.000,A,4841.2627,N,01132.3690,E,0.79,176.66,080809,,*03
$GPGGA,135446.000,4841.2635,N,01132.3687,E,1,07,1.4,360.7,M,47.6,M,,0000*58
$GPGSA,A,3,30,29,27,04,12,02,09,,,,,,2.5,1.4,2.1*32
$GPGSV,3,1,09,12,80,014,18,30,56,276,19,09,45,139,22,14,40,283,*75
$GPGSV,3,2,09,26,38,225,17,27,34,138,21,02,26,107,16,04,24,070,19*7C
$GPGSV,3,3,09,29,19,207,16*41
$GPRMC,135446.000,A,4841.2635,N,01132.3687,E,1.77,184.16,080809,,*00
$GPGGA,135447.000,4841.2644,N,01132.3677,E,1,07,1.4,359.6,M,47.6,M,,0000*5B
$GPGSA,A,3,30,29,27,04,12,02,09,,,,,,2.5,1.4,2.1*32
$GPRMC,135447.000,A,4841.2644,N,01132.3677,E,0.90,253.39,080809,,*04
$GPGGA,135448.000,4841.2652,N,01132.3672,E,1,07,1.4,358.4,M,47.6,M,,0000*55
$GPGSA,A,3,30,29,27,04,12,02,09,,,,,,2.5,1.4,2.1*32
$GPRMC,135448.000,A,4841.2652,N,01132.3672,E,1.22,307.15,080809,,*0F
$GPGGA,135449.000,4841.2660,N,01132.3667,E,1,07,1.4,358.3,M,47.6,M,,0000*56
$GPGSA,A,3,30,29,27,04,12,02,09,,,,,,2.5,1.4,2.1*32
$GPRMC,135449.000,A,4841.2660,N,01132.3667,E,1.46,341.16,080809,,*08
$GPGGA,135450.000,4841.2667,N,01132.3666,E,1,07,1.4,358.6,M,47.6,M,,0000*5D
$GPGSA,A,3,30,29,27,04,12,02,09,,,,,,2.5,1.4,2.1*32
$GPRMC,135450.000,A,4841.2667,N,01132.3666,E,1.26,18.03,080809,,*3B
$GPGGA,135451.000,4841.2672,N,01132.3669,E,1,06,2.1,359.9,M,47.6,M,,0000*5E
$GPGSA,A,3,30,29,27,12,02,09,,,,,,,3.8,2.1,3.2*3E
$GPGSV,3,1,09,12,80,014,19,30,56,276,19,09,45,139,22,14,40,283,*74
$GPGSV,3,2,09,26,38,225,,27,34,138,20,02,26,107,17,04,24,070,18*7B
$GPGSV,3,3,09,29,19,207,17*40
$GPRMC,135451.000,A,4841.2672,N,01132.3669,E,1.55,351.03,080809,,*0B
$GPGGA,135452.000,4841.2677,N,01132.3675,E,1,07,1.4,359.9,M,47.6,M,,0000*52
$GPGSA,A,3,30,29,27,04,12,02,09,,,,,,2.5,1.4,2.1*32
$GPRMC,135452.000,A,4841.2677,N,01132.3675,E,0.41,212.85,080809,,*0C
$GPGGA,135453.000,4841.2682,N,01132.3673,E,1,07,1.4,359.3,M,47.6,M,,0000*55
$GPGSA,A,3,30,29,27,04,12,02,09,,,,,,2.5,1.4,2.1*32
$GPRMC,135453.000,A,4841.2682,N,01132.3673,E,1.87,294.10,080809,,*08
$GPGGA,135454.000,4841.2686,N,01132.3670,E,1,07,1.4,357.9,M,47.6,M,,0000*51
$GPGSA,A,3,30,29,27,04,12,02,09,,,,,,2.5,1.4,2.1*32
$GPRMC,135454.000,A,4841.2686,N,01132.3670,E,2.75,311.21,080809,,*08
$GPGGA,135455.000,4841.2687,N,01132.3667,E,1,07,1.4,357.9,M,47.6,M,,0000*57
$GPGSA,A,3,30,29,27,04,12,02,09,,,,,,2.5,1.4,2.1*32
$GPRMC,135455.000,A,4841.2687,N,01132.3667,E,2.04,308.89,080809,,*02
$GPGGA,135456.000,4841.2690,N,01132.3662,E,1,07,1.4,357.6,M,47.6,M,,0000*58
$GPGSA,A,3,30,29,27,04,12,02,09,,,,,,2.5,1.4,2.1*32
$GPGSV,3,1,09,12,80,014,20,30,56,276,18,09,45,139,22,14,40,283,*7F
$GPGSV,3,2,09,26,38,225,,27,34,138,20,02,26,107,16,04,24,070,18*7A
$GPGSV,3,3,09,29,19,207,17*40
$GPRMC,135456.000,A,4841.2690,N,01132.3662,E,1.47,314.33,080809,,*0A
$GPGGA,135457.000,4841.2691,N,01132.3655,E,1,07,1.4,358.7,M,47.6,M,,0000*52
$GPGSA,A,3,30,29,27,04,12,02,09,,,,,,2.5,1.4,2.1*32
$GPRMC,135457.000,A,4841.2691,N,01132.3655,E,1.22,318.32,080809,,*00
$GPGGA,135458.000,4841.2699,N,01132.3648,E,1,07,1.4,357.8,M,47.6,M,,0000*59
$GPGSA,A,3,30,29,27,04,12,02,09,,,,,,2.5,1.4,2.1*32
$GPRMC,135458.000,A,4841.2699,N,01132.3648,E,2.68,346.13,080809,,*0E
$GPGGA,135459.000,4841.2703,N,01132.3641,E,1,07,1.4,357.2,M,47.6,M,,0000*59
$GPGSA,A,3,30,29,27,04,12,02,09,,,,,,2.5,1.4,2.1*32
$GPRMC,135459.000,A,4841.2703,N,01132.3641,E,2.27,339.80,080809,,*0D
$GPGGA,135500.000,4841.2709,N,01132.3637,E,1,07,1.4,354.5,M,47.6,M,,0000*5B
$GPGSA,A,3,30,29,27,04,12,02,09,,,,,,2.5,1.4,2.1*32
$GPRMC,135500.000,A,4841.2709,N,01132.3637,E,2.83,353.55,080809,,*01
$GPGGA,135501.000,4841.2705,N,01132.3638,E,1,06,1.4,355.1,M,47.6,M,,0000*5D
$GPGSA,A,3,30,29,27,04,12,09,,,,,,,2.5,1.4,2.1*30
$GPGSV,3,1,09,12,80,014,19,30,56,276,18,09,45,139,22,14,40,283,11*75
$GPGSV,3,2,09,26,38,225,,27,34,138,20,02,26,107,17,04,24,070,18*7B
$GPGSV,3,3,09,29,19,207,17*40
$GPRMC,135501.000,A,4841.2705,N,01132.3638,E,0.27,252.20,080809,,*0D
$GPGGA,135502.000,4841.2705,N,01132.3642,E,1,07,1.4,354.4,M,47.6,M,,0000*56
$GPGSA,A,3,30,29,27,04,12,02,09,,,,,,2.5,1.4,2.1*32
$GPRMC,135502.000,A,4841.2705,N,01132.3642,E,0.99,351.62,080809,,*02
$GPGGA,135503.000,4841.2707,N,01132.3643,E,1,07,1.4,353.4,M,47.6,M,,0000*53
$GPGSA,A,3,30,29,27,04,12,02,09,,,,,,2.5,1.4,2.1*32
$GPRMC,135503.000,A,4841.2707,N,01132.3643,E,1.32,350.55,080809,,*05
$GPGGA,135504.000,4841.2707,N,01132.3640,E,1,07,1.4,353.7,M,47.6,M,,0000*54
$GPGSA,A,3,30,29,27,04,12,02,09,,,,,,2.5,1.4,2.1*32
$GPRMC,135504.000,A,4841.2707,N,01132.3640,E,1.22,303.24,080809,,*00
$GPGGA,135505.000,4841.2710,N,01132.3636,E,1,07,1.4,354.1,M,47.6,M,,0000*53
$GPGSA,A,3,30,29,27,04,12,02,09,,,,,,2.5,1.4,2.1*32
$GPRMC,135505.000,A,4841.2710,N,01132.3636,E,3.42,314.82,080809,,*08
$GPGGA,135506.000,4841.2711,N,01132.3634,E,1,07,1.4,354.9,M,47.6,M,,0000*5B
$GPGSA,A,3,30,29,27,04,12,02,09,,,,,,2.5,1.4,2.1*32
$GPGSV,3,1,09,12,80,014,19,30,56,276,19,09,45,139,21,14,40,283,13*75
$GPGSV,3,2,09,26,38,225,08,27,34,138,20,02,26,107,17,04,24,070,18*73
$GPGSV,3,3,09,29,19,207,17*40
$GPRMC,135506.000,A,4841.2711,N,01132.3634,E,0.77,285.05,080809,,*0B
$GPGGA,135507.000,4841.2707,N,01132.3642,E,1,07,1.4,355.6,M,47.6,M,,0000*52
$GPGSA,A,3,30,29,27,04,12,02,09,,,,,,2.5,1.4,2.1*32
$GPRMC,135507.000,A,4841.2707,N,01132.3642,E,1.39,63.44,080809,,*38
$GPGGA,135508.000,4841.2705,N,01132.3647,E,1,07,1.4,357.2,M,47.6,M,,0000*5C
$GPGSA,A,3,30,29,27,04,12,02,09,,,,,,2.5,1.4,2.1*32
$GPRMC,135508.000,A,4841.2705,N,01132.3647,E,0.98,330.38,080809,,*04
$GPGGA,135509.000,4841.2707,N,01132.3642,E,1,07,1.4,356.6,M,47.6,M,,0000*5F
$GPGSA,A,3,30,29,27,04,12,02,09,,,,,,2.5,1.4,2.1*32
$GPRMC,135509.000,A,4841.2707,N,01132.3642,E,1.22,272.98,080809,,*0F
$GPGGA,135510.000,4841.2704,N,01132.3638,E,1,07,1.4,356.7,M,47.6,M,,0000*58
$GPGSA,A,3,30,29,27,04,12,02,09,,,,,,2.5,1.4,2.1*32
$GPRMC,135510.000,A,4841.2704,N,01132.3638,E,1.38,156.58,080809,,*0B
$GPGGA,135511.000,4841.2706,N,01132.3638,E,1,07,1.4,356.0,M,47.6,M,,0000*5C
$GPGSA,A,3,30,29,27,04,12,02,09,,,,,,2.5,1.4,2.1*32
$GPGSV,3,1,09,12,80,014,19,30,56,276,19,09,45,139,20,14,40,283,12*75
$GPGSV,3,2,09,26,38,225,14,27,34,138,21,02,26,107,16,04,24,070,19*7F
$GPGSV,3,3,09,29,19,207,18*4F
$GPRMC,135511.000,A,4841.2706,N,01132.3638,E,1.96,95.76,080809,,*3E
$GPGGA,135512.000,4841.2705,N,01132.3638,E,1,07,1.4,355.3,M,47.6,M,,0000*5C
$GPGSA,A,3,30,29,27,04,12,02,09,,,,,,2.5,1.4,2.1*32
$GPRMC,135512.000,A,4841.2705,N,01132.3638,E,1.26,112.97,080809,,*04
$GPGGA,135513.000,4841.2709,N,01132.3646,E,1,06,1.6,355.0,M,47.6,M,,0000*58
$GPGSA,A,3,29,27,04,12,02,09,,,,,,,2.6,1.6,2.1*30
$GPRMC,135513.000,A,4841.2709,N,01132.3646,E,2.82,45.75,080809,,*32
$GPGGA,135514.000,4841.2711,N,01132.3654,E,1,08,1.1,355.8,M,47.6,M,,0000*54
$GPGSA,A,3,14,30,29,27,04,12,02,09,,,,,2.3,1.1,2.0*35
$GPRMC,135514.000,A,4841.2711,N,01132.3654,E,2.80,62.33,080809,,*3A
$GPGGA,135515.000,4841.2708,N,01132.3661,E,1,08,1.1,356.4,M,47.6,M,,0000*54
$GPGSA,A,3,14,30,29,27,04,12,02,09,,,,,2.3,1.1,2.0*35
$GPRMC,135515.000,A,4841.2708,N,01132.3661,E,1.38,103.72,080809,,*06
$GPGGA,135516.000,4841.2708,N,01132.3665,E,1,08,1.1,357.3,M,47.6,M,,0000*55
$GPGSA,A,3,14,30,29,27,04,12,02,09,,,,,2.3,1.1,2.0*35
$GPGSV,3,1,09,12,80,014,20,30,56,276,19,09,45,139,20,14,40,283,14*79
$GPGSV,3,2,09,26,38,225,16,27,34,138,21,02,26,107,15,04,24,070,20*74
$GPGSV,3,3,09,29,19,207,18*4F
$GPRMC,135516.000,A,4841.2708,N,01132.3665,E,0.89,72.05,080809,,*3D
$GPGGA,135517.000,4841.2708,N,01132.3667,E,1,07,1.2,357.7,M,47.6,M,,0000*5E
$GPGSA,A,3,14,30,29,27,04,12,09,,,,,,2.3,1.2,2.0*34
$GPRMC,135517.000,A,4841.2708,N,01132.3667,E,0.31,19.62,080809,,*31
$GPGGA,135518.000,4841.2706,N,01132.3669,E,1,09,1.1,357.4,M,47.6,M,,0000*5F
$GPGSA,A,3,14,30,29,27,04,26,12,02,09,,,,2.2,1.1,2.0*30
$GPRMC,135518.000,A,4841.2706,N,01132.3669,E,0.87,116.53,080809,,*0F
$GPGGA,135519.000,4841.2706,N,01132.3671,E,1,08,1.1,357.9,M,47.6,M,,0000*5B
$GPGSA,A,3,14,30,29,27,04,26,12,09,,,,,2.3,1.1,2.0*33
$GPRMC,135519.000,A,4841.2706,N,01132.3671,E,1.57,42.01,080809,,*3C
$GPGGA,135520.000,4841.2710,N,01132.3673,E,1,08,1.1,357.6,M,47.6,M,,0000*5B
$GPGSA,A,3,14,30,29,27,04,26,12,09,,,,,2.3,1.1,2.0*33
